[
  {
    "id": "welchon-1",
    "name": "국립강원전문과학관",
    "image": "https://www.welchon.com/upload/seasontheme/course/2026/04/c623008b-0fc5-4731-8ee1-a6f0c1844bcd.png",
    "lat": 37.39137816,
    "lng": 127.9533874,
    "address": "강원특별자치도 원주시 북원로 2790 (태장동)",
    "province": "강원특별자치도",
    "description": null
  },
  {
    "id": "welchon-2",
    "name": "원주 연봉정마을",
    "image": "https://www.welchon.com/upload/seasontheme/course/2026/04/e60ccfb9-7cba-434e-9fe4-d5e35fda5bcb.png",
    "lat": 37.20310586,
    "lng": 128.1026968,
    "address": "강원특별자치도 원주시 신림면 연봉정길 48-18",
    "province": "강원특별자치도",
    "description": null
  },
  {
    "id": "welchon-3",
    "name": "용소막 성당",
    "image": "https://www.welchon.com/upload/seasontheme/course/2026/04/71cf3ac7-b8ae-4789-8e65-fb7c711dad47.png",
    "lat": 37.21220285,
    "lng": 128.0871715,
    "address": "강원특별자치도 원주시 신림면 구학산로 1857",
    "province": "강원특별자치도",
    "description": null
  },
  {
    "id": "welchon-4",
    "name": "꽃양귀비마을",
    "image": "https://www.welchon.com/upload/seasontheme/course/2026/04/413f2739-2766-4a87-9a7c-975125a1a29a.png",
    "lat": 37.28515486,
    "lng": 127.9406308,
    "address": "강원특별자치도 원주시 판부면 용수골길 311",
    "province": "강원특별자치도",
    "description": null
  },
  {
    "id": "welchon-5",
    "name": "원주한지테마파크",
    "image": "https://www.welchon.com/upload/seasontheme/course/2026/04/1d58f71e-d951-412f-ad4a-8a45d14a6d96.png",
    "lat": 37.33437552,
    "lng": 127.9353957,
    "address": "강원특별자치도 원주시 한지공원길 151 (무실동)",
    "province": "강원특별자치도",
    "description": null
  },
  {
    "id": "welchon-6",
    "name": "원주한지테마파크",
    "image": "https://www.welchon.com/upload/seasontheme/course/2026/04/d8b53eca-40f5-4357-9327-9c1888eaf353.png",
    "lat": 37.33437552,
    "lng": 127.9353957,
    "address": "강원특별자치도 원주시 한지공원길 151 (무실동)",
    "province": "강원특별자치도",
    "description": null
  },
  {
    "id": "welchon-7",
    "name": "꽃양귀비마을",
    "image": "https://www.welchon.com/upload/seasontheme/course/2026/04/61ba2dab-c00d-4279-8379-0b793c27fa75.png",
    "lat": 37.28515486,
    "lng": 127.9406308,
    "address": "강원특별자치도 원주시 판부면 용수골길 311",
    "province": "강원특별자치도",
    "description": null
  },
  {
    "id": "welchon-8",
    "name": "국립강원전문과학관",
    "image": "https://www.welchon.com/upload/seasontheme/course/2026/04/78080fec-55b9-438c-a3ea-8a5848c672a0.png",
    "lat": 37.39388796,
    "lng": 127.951138,
    "address": "강원특별자치도 원주시 북원로 2810 (태장동)",
    "province": "강원특별자치도",
    "description": null
  },
  {
    "id": "welchon-9",
    "name": "용소막 성당",
    "image": "https://www.welchon.com/upload/seasontheme/course/2026/04/5caa6cab-1fb6-4d63-ad78-4c156051f9c8.png",
    "lat": 37.21220285,
    "lng": 128.0871715,
    "address": "강원특별자치도 원주시 신림면 구학산로 1857",
    "province": "강원특별자치도",
    "description": null
  },
  {
    "id": "welchon-10",
    "name": "원주 연봉정마을",
    "image": "https://www.welchon.com/upload/seasontheme/course/2026/04/802424ca-cbfc-4de8-a6ed-27ec211cbd59.png",
    "lat": 37.20310586,
    "lng": 128.1026968,
    "address": "강원특별자치도 원주시 신림면 연봉정길 48-18",
    "province": "강원특별자치도",
    "description": null
  },
  {
    "id": "welchon-11",
    "name": "양평 뚱딴지마을",
    "image": "https://www.welchon.com/upload/seasontheme/course/2026/04/04e40c32-c1c8-4c99-a5df-0e56d6f6851f.jpg",
    "lat": 37.46991098,
    "lng": 127.46425,
    "address": "경기 양평군 강상면 학곡양지말길 35-4",
    "province": "경기",
    "description": null
  },
  {
    "id": "welchon-12",
    "name": "양평 산수유마을",
    "image": "https://www.welchon.com/upload/seasontheme/course/2026/04/9caa7adb-f1ca-4069-b441-21fff3f20df2.jpg",
    "lat": 37.44401284,
    "lng": 127.5575888,
    "address": "경기 양평군 개군면 산수유1길 1",
    "province": "경기",
    "description": null
  },
  {
    "id": "welchon-13",
    "name": "세미원, 두물머리",
    "image": "https://www.welchon.com/upload/seasontheme/course/2026/04/55e5f80f-a73d-4d66-90ee-3a01f89d5843.jpg",
    "lat": 37.54093865,
    "lng": 127.3239607,
    "address": "경기 양평군 양서면 양수로 93",
    "province": "경기",
    "description": null
  },
  {
    "id": "welchon-14",
    "name": "양평군립미술관",
    "image": "https://www.welchon.com/upload/seasontheme/course/2026/04/490e3942-f431-4d10-a45f-c89d1b5f0ca1.jpg",
    "lat": 37.49709934,
    "lng": 127.4839989,
    "address": "경기 양평군 양평읍 문화복지길 2",
    "province": "경기",
    "description": null
  },
  {
    "id": "welchon-15",
    "name": "밀양향교",
    "image": "https://www.welchon.com/upload/seasontheme/course/2026/03/66567af4-4b6d-47bd-9ae5-0ef7aaad3111.jpg",
    "lat": 35.50660573,
    "lng": 128.7545381,
    "address": "경남 밀양시 밀양향교3길 19 (교동)",
    "province": "경남",
    "description": null
  },
  {
    "id": "welchon-16",
    "name": "밀양여행문화센터 해천상상루",
    "image": "https://www.welchon.com/upload/seasontheme/course/2026/03/f4b7b477-2a08-4992-b1c8-da0b3139af6d.jpg",
    "lat": 35.49516426,
    "lng": 128.7510241,
    "address": "경남 밀양시 노상하1길 7 (내이동)",
    "province": "경남",
    "description": null
  },
  {
    "id": "welchon-17",
    "name": "밀양 퇴로고가마을",
    "image": "https://www.welchon.com/upload/seasontheme/course/2026/03/103932fd-e2f3-4fbc-9d61-2be27e4c2baf.jpg",
    "lat": 35.55113684,
    "lng": 128.7006,
    "address": "경남 밀양시 부북면 퇴로2길 54",
    "province": "경남",
    "description": null
  },
  {
    "id": "welchon-18",
    "name": "밀양관아",
    "image": "https://www.welchon.com/upload/seasontheme/course/2026/03/6ecef7c9-9523-4a99-a2c5-1541a218654e.jpg",
    "lat": 35.49429557,
    "lng": 128.7543646,
    "address": "경남 밀양시 중앙로 348 (내일동)",
    "province": "경남",
    "description": null
  },
  {
    "id": "welchon-19",
    "name": "금시당",
    "image": "https://www.welchon.com/upload/seasontheme/course/2026/03/9ff88027-c885-499d-8e95-edbc4543ecf1.jpg",
    "lat": 35.48711109,
    "lng": 128.7840967,
    "address": "경남 밀양시 활성로 24-183 (활성동)",
    "province": "경남",
    "description": null
  },
  {
    "id": "welchon-20",
    "name": "완도 신학마을",
    "image": "https://www.welchon.com/upload/seasontheme/course/2026/02/dc0efc3c-96c9-4f72-ae8d-a909acdc1c56.jpg",
    "lat": 34.38568211,
    "lng": 126.6463696,
    "address": "전남 완도군 군외면 원동1길 8",
    "province": "전남",
    "description": null
  },
  {
    "id": "welchon-21",
    "name": "완도수목원",
    "image": "https://www.welchon.com/upload/seasontheme/course/2026/02/6a93ab63-c877-4f56-85e4-10ac8c9d4c55.jpg",
    "lat": 34.36065258,
    "lng": 126.663532,
    "address": "전남 완도군 군외면 초평1길 156",
    "province": "전남",
    "description": null
  },
  {
    "id": "welchon-22",
    "name": "정도리 구계등",
    "image": "https://www.welchon.com/upload/seasontheme/course/2026/02/7f78d1dc-5ffe-4845-99bc-07a220237f42.jpg",
    "lat": 34.29836474,
    "lng": 126.7092413,
    "address": "전남 완도군 완도읍 구계등길 47-1",
    "province": "전남",
    "description": null
  },
  {
    "id": "welchon-23",
    "name": "모래뜰",
    "image": "https://www.welchon.com/upload/seasontheme/course/2026/02/0aafac38-b1fa-4430-af4a-385189f26a12.jpg",
    "lat": 34.32789298,
    "lng": 126.8064152,
    "address": "전남 완도군 신지면 명사십리길 74",
    "province": "전남",
    "description": null
  },
  {
    "id": "welchon-24",
    "name": "완도타워",
    "image": "https://www.welchon.com/upload/seasontheme/course/2026/02/16f7b1a7-b1bc-4e6b-962e-b7d1da9b66d4.jpg",
    "lat": 34.31443838,
    "lng": 126.7632669,
    "address": "전남 완도군 완도읍 장보고대로 330",
    "province": "전남",
    "description": null
  },
  {
    "id": "welchon-25",
    "name": "청해포구촬영장",
    "image": "https://www.welchon.com/upload/seasontheme/course/2026/02/b6142512-275e-4e22-8fe3-d7060ed8db3e.jpg",
    "lat": 34.32293555,
    "lng": 126.6705189,
    "address": "전남 완도군 완도읍 청해진서로 1161-8",
    "province": "전남",
    "description": null
  },
  {
    "id": "welchon-26",
    "name": "목면시배유지",
    "image": "https://www.welchon.com/upload/seasontheme/course/2026/02/cca5d5ff-99b4-41c6-98ff-3240b66fbe28.jpg",
    "lat": 35.29061291,
    "lng": 127.9580562,
    "address": "경남 산청군 단성면 목화로 887",
    "province": "경남",
    "description": null
  },
  {
    "id": "welchon-27",
    "name": "산청 지리산덕천강마을",
    "image": "https://www.welchon.com/upload/seasontheme/course/2026/02/8023b603-c429-4fb4-b362-bcc5c47303dd.jpg",
    "lat": 35.2405056,
    "lng": 127.8958151,
    "address": "경남 산청군 단성면 덕천로 798-6",
    "province": "경남",
    "description": null
  },
  {
    "id": "welchon-28",
    "name": "겁외사",
    "image": "https://www.welchon.com/upload/seasontheme/course/2026/02/39f5ffb1-d122-4c98-955d-adda71c03ab0.jpg",
    "lat": 35.27924012,
    "lng": 127.9684153,
    "address": "경남 산청군 단성면 성철로 125",
    "province": "경남",
    "description": null
  },
  {
    "id": "welchon-29",
    "name": "남사예담촌",
    "image": "https://www.welchon.com/upload/seasontheme/course/2026/02/945bb5dd-917e-4157-9418-93f86c67c2ae.jpg",
    "lat": 35.2742092,
    "lng": 127.9363538,
    "address": "경남 산청군 단성면 지리산대로2897번길 10",
    "province": "경남",
    "description": null
  },
  {
    "id": "welchon-30",
    "name": "백담사",
    "image": "https://www.welchon.com/upload/seasontheme/course/2026/01/7ec06d12-8f1d-45e9-8ee6-a53e202593ef.jpg",
    "lat": 38.16430447,
    "lng": 128.3741192,
    "address": "강원특별자치도 인제군 북면 백담로 746",
    "province": "강원특별자치도",
    "description": null
  },
  {
    "id": "welchon-31",
    "name": "인제 백담마을",
    "image": "https://www.welchon.com/upload/seasontheme/course/2026/01/18f0a442-94e6-40e1-969a-8d8cdb9729b8.jpg",
    "lat": 38.1948439,
    "lng": 128.3453073,
    "address": "강원특별자치도 인제군 북면 만해로 410-17",
    "province": "강원특별자치도",
    "description": null
  },
  {
    "id": "welchon-32",
    "name": "인제 용대리 황태마을",
    "image": "https://www.welchon.com/upload/seasontheme/course/2026/01/2b149cd1-606d-4ba1-aabb-41c6562dff71.jpg",
    "lat": 38.22006774,
    "lng": 128.3697632,
    "address": "강원특별자치도 인제군 북면 황태길 375",
    "province": "강원특별자치도",
    "description": null
  },
  {
    "id": "welchon-33",
    "name": "만해마을",
    "image": "https://www.welchon.com/upload/seasontheme/course/2026/01/83b4e9fb-6943-4032-961e-5b3c2210646a.jpg",
    "lat": 38.18754641,
    "lng": 128.3181282,
    "address": "강원특별자치도 인제군 북면 만해로 91",
    "province": "강원특별자치도",
    "description": null
  },
  {
    "id": "welchon-34",
    "name": "창녕우포곤충나라",
    "image": "https://www.welchon.com/upload/seasontheme/course/2026/01/bcf1adee-f9e6-43a9-8713-68c606fa057b.jpg",
    "lat": 35.5655587,
    "lng": 128.4179727,
    "address": "경남 창녕군 대합면 우포2로 333",
    "province": "경남",
    "description": null
  },
  {
    "id": "welchon-35",
    "name": "우포늪",
    "image": "https://www.welchon.com/upload/seasontheme/course/2026/01/6993c2ed-be89-4ac6-bd7c-f75b769932e8.jpg",
    "lat": 35.54456088,
    "lng": 128.4191194,
    "address": "경남 창녕군 유어면 우포늪길 220",
    "province": "경남",
    "description": null
  },
  {
    "id": "welchon-36",
    "name": "창녕 성곡오색별빛마을",
    "image": "https://www.welchon.com/upload/seasontheme/course/2026/01/8b2ec88e-bbac-47d0-a5d1-b555291b2656.jpg",
    "lat": 35.63642678,
    "lng": 128.5210046,
    "address": "경남 창녕군 성산면 연당대산로 38",
    "province": "경남",
    "description": null
  },
  {
    "id": "welchon-37",
    "name": "창녕 교동 고분군",
    "image": "https://www.welchon.com/upload/seasontheme/course/2026/01/9b9f1af5-35e0-4be2-8fd7-bc3534971aea.jpg",
    "lat": 35.54540419,
    "lng": 128.5054414,
    "address": "경남 창녕군 창녕읍 창밀로 34",
    "province": "경남",
    "description": null
  },
  {
    "id": "welchon-38",
    "name": "나태주풀꽃문학관",
    "image": "https://www.welchon.com/upload/seasontheme/course/2025/12/9b6319f4-0393-4a02-b510-a225eba485f2.jpg",
    "lat": 36.45366009,
    "lng": 127.1198552,
    "address": "충남 공주시 봉황로 85-12 (반죽동)",
    "province": "충남",
    "description": null
  },
  {
    "id": "welchon-39",
    "name": "천안어린이꿈누리터",
    "image": "https://www.welchon.com/upload/seasontheme/course/2025/12/a251742b-21a8-4bc5-aebd-a7c329e83e3c.jpg",
    "lat": 36.80663304,
    "lng": 127.1511772,
    "address": "충남 천안시 동남구 옛시청길 39 (문화동)",
    "province": "충남",
    "description": null
  },
  {
    "id": "welchon-40",
    "name": "국립공주박물관",
    "image": "https://www.welchon.com/upload/seasontheme/course/2025/12/5d7897f9-d168-431e-8c10-c4d4656870ba.jpg",
    "lat": 36.46552912,
    "lng": 127.1121799,
    "address": "충남 공주시 관광단지길 34 (웅진동)",
    "province": "충남",
    "description": null
  },
  {
    "id": "welchon-41",
    "name": "아산생태곤충원",
    "image": "https://www.welchon.com/upload/seasontheme/course/2025/12/078baa3a-8ac1-4ca8-b230-f2e651c21646.jpg",
    "lat": 36.79884089,
    "lng": 126.9793468,
    "address": "충남 아산시 실옥로 216 (배미동)",
    "province": "충남",
    "description": null
  },
  {
    "id": "welchon-42",
    "name": "공주 소랭이마을",
    "image": "https://www.welchon.com/upload/seasontheme/course/2025/12/e7d2875c-0195-47bc-8a55-1716a37cbde5.jpg",
    "lat": 36.62729309,
    "lng": 127.0829961,
    "address": "충남 공주시 정안면 정안마곡사로 396",
    "province": "충남",
    "description": null
  },
  {
    "id": "welchon-43",
    "name": "삼척 가온밸리체험마을",
    "image": "https://www.welchon.com/upload/seasontheme/course/2025/12/7ac2f29a-5375-49f5-a9a8-79dc38866f7f.jpg",
    "lat": 37.15005532,
    "lng": 129.2059671,
    "address": "강원특별자치도 삼척시 가곡면 가곡천로 1476",
    "province": "강원특별자치도",
    "description": null
  },
  {
    "id": "welchon-44",
    "name": "나릿골 감성마을",
    "image": "https://www.welchon.com/upload/seasontheme/course/2025/12/07c87c01-5ae5-455b-98b9-cfd4d67f4a40.jpg",
    "lat": 37.44015838,
    "lng": 129.1875138,
    "address": "강원특별자치도 삼척시 나리골길 36 (정하동)",
    "province": "강원특별자치도",
    "description": null
  },
  {
    "id": "welchon-45",
    "name": "삼척해상케이블카",
    "image": "https://www.welchon.com/upload/seasontheme/course/2025/12/45db4037-6e46-4171-a0f5-759f9681dc0d.jpg",
    "lat": 37.28796878,
    "lng": 129.3186071,
    "address": "강원특별자치도 삼척시 근덕면 장호항길 12-10",
    "province": "강원특별자치도",
    "description": null
  },
  {
    "id": "welchon-46",
    "name": "덕봉산",
    "image": "https://www.welchon.com/upload/seasontheme/course/2025/12/63e8318e-999c-4cbb-b6ad-f2f1690c920a.jpg",
    "lat": 37.38473349,
    "lng": 129.2403594,
    "address": "강원특별자치도 삼척시 근덕면 덕산해변1길 80-12",
    "province": "강원특별자치도",
    "description": null
  },
  {
    "id": "welchon-47",
    "name": "경주 세심마을",
    "image": "https://www.welchon.com/upload/seasontheme/course/2025/11/015ebe37-8f01-4144-bbf2-10c1f2801e96.jpg",
    "lat": 36.01527036,
    "lng": 129.1619606,
    "address": "경북 경주시 안강읍 세심길 20-9",
    "province": "경북",
    "description": null
  },
  {
    "id": "welchon-48",
    "name": "독락당",
    "image": "https://www.welchon.com/upload/seasontheme/course/2025/11/dee18f14-049c-4640-87ff-30b72ce27e1c.jpg",
    "lat": 36.01694369,
    "lng": 129.1599745,
    "address": "경북 경주시 안강읍 옥산서원길 300-3",
    "province": "경북",
    "description": null
  },
  {
    "id": "welchon-49",
    "name": "옥산서원과 세심대",
    "image": "https://www.welchon.com/upload/seasontheme/course/2025/11/a0d6d3df-2a05-4792-af55-e2d54792e1fa.jpg",
    "lat": 36.01165853,
    "lng": 129.1633361,
    "address": "경북 경주시 안강읍 옥산서원길 216-27",
    "province": "경북",
    "description": null
  },
  {
    "id": "welchon-50",
    "name": "느린353",
    "image": "https://www.welchon.com/upload/seasontheme/course/2025/11/568cd2c8-d8e7-41c4-8a41-a78f1b036a12.jpg",
    "lat": 36.02136565,
    "lng": 129.1574297,
    "address": "경북 경주시 안강읍 옥산서원길 353-14",
    "province": "경북",
    "description": null
  },
  {
    "id": "welchon-51",
    "name": "정혜사지 13층 석탑",
    "image": "https://www.welchon.com/upload/seasontheme/course/2025/11/d12841ac-9e5e-4bee-8ba0-66cffa147ed9.jpg",
    "lat": 36.04374747,
    "lng": 129.1671008,
    "address": "경북 경주시 안강읍 옥산서원길 711",
    "province": "경북",
    "description": null
  },
  {
    "id": "welchon-52",
    "name": "원색명화마을 및 농가식당 원색마루",
    "image": "https://www.welchon.com/upload/seasontheme/course/2025/11/847c7d2f-ea2b-4d0b-a62b-32bf175a47eb.jpg",
    "lat": 35.80040513,
    "lng": 127.1891934,
    "address": "전북특별자치도 전주시 완산구 바람쐬는길 330 (색장동)",
    "province": "전북특별자치도",
    "description": null
  },
  {
    "id": "welchon-53",
    "name": "아중호수생태공원",
    "image": "https://www.welchon.com/upload/seasontheme/course/2025/11/a04e5f33-fad4-4fe3-8ca2-78700eac987c.jpg",
    "lat": 35.82022599,
    "lng": 127.1755532,
    "address": "전북특별자치도 전주시 덕진구 아중호수길 92-1 (우아동1가)",
    "province": "전북특별자치도",
    "description": null
  },
  {
    "id": "welchon-54",
    "name": "전주한옥마을",
    "image": "https://www.welchon.com/upload/seasontheme/course/2025/11/f80f2ff0-17a2-4878-ae4a-c48a48fd3d84.jpg",
    "lat": 35.81821333,
    "lng": 127.1536084,
    "address": "전북특별자치도 전주시 완산구 기린대로 99 (남노송동)",
    "province": "전북특별자치도",
    "description": null
  },
  {
    "id": "welchon-55",
    "name": "호남권역 예담고",
    "image": "https://www.welchon.com/upload/seasontheme/course/2025/11/a3770cc5-c6f1-4b10-afab-08d936850072.jpg",
    "lat": 35.78883284,
    "lng": 127.1989027,
    "address": "전북특별자치도 전주시 완산구 은석길 32-134 (색장동)",
    "province": "전북특별자치도",
    "description": null
  },
  {
    "id": "welchon-56",
    "name": "청소역",
    "image": "https://www.welchon.com/upload/seasontheme/course/2025/10/b32ecc57-aede-49bd-ae17-ef827b1bb1d7.jpg",
    "lat": 36.44593906,
    "lng": 126.5907629,
    "address": "충남 보령시 청소면 청소큰길 176",
    "province": "충남",
    "description": null
  },
  {
    "id": "welchon-57",
    "name": "보령 은행마을",
    "image": "https://www.welchon.com/upload/seasontheme/course/2025/10/ed3f4765-3d83-4369-8feb-d828e2ab3506.jpg",
    "lat": 36.42581953,
    "lng": 126.6719896,
    "address": "충남 보령시 청라면 오서산길 150-32",
    "province": "충남",
    "description": null
  },
  {
    "id": "welchon-58",
    "name": "보령박물관",
    "image": "https://www.welchon.com/upload/seasontheme/course/2025/10/97490e62-aa7c-42f4-a938-e975b0c782ed.jpg",
    "lat": 36.35071661,
    "lng": 126.5905197,
    "address": "충남 보령시 대흥로 63 (대천동)",
    "province": "충남",
    "description": null
  },
  {
    "id": "welchon-59",
    "name": "보령무궁화수목원",
    "image": "https://www.welchon.com/upload/seasontheme/course/2025/10/d1d7948e-ea8f-44b2-afe1-6ebb9841e946.jpg",
    "lat": 36.33434533,
    "lng": 126.6390016,
    "address": "충남 보령시 성주면 성주산로 318-57",
    "province": "충남",
    "description": null
  },
  {
    "id": "welchon-60",
    "name": "갱스커피",
    "image": "https://www.welchon.com/upload/seasontheme/course/2025/10/32ba3bab-3c47-4d7d-933a-cd9f8b21594d.jpg",
    "lat": 36.36780329,
    "lng": 126.654584,
    "address": "충남 보령시 청라면 청성로 143",
    "province": "충남",
    "description": null
  },
  {
    "id": "welchon-61",
    "name": "카페 정원",
    "image": "https://www.welchon.com/upload/seasontheme/course/2025/09/8e520381-4a02-42cc-b5a1-edaa1f719db3.jpg",
    "lat": 34.9687305,
    "lng": 126.6765564,
    "address": "전남 나주시 왕곡면 덕실길 27-4",
    "province": "전남",
    "description": null
  },
  {
    "id": "welchon-62",
    "name": "나주정미소",
    "image": "https://www.welchon.com/upload/seasontheme/course/2025/09/59c80abb-9e41-4a1f-a96a-4ba2ceb2e005.jpg",
    "lat": 35.03456891,
    "lng": 126.7176608,
    "address": "전남 나주시 과원길 5 (성북동)",
    "province": "전남",
    "description": null
  },
  {
    "id": "welchon-63",
    "name": "나주 에코왕곡마을",
    "image": "https://www.welchon.com/upload/seasontheme/course/2025/09/833e4a77-6cdc-464f-a381-dd8339c6a002.jpg",
    "lat": 34.96904824,
    "lng": 126.668402,
    "address": "전남 나주시 왕곡면 본양길 65-54",
    "province": "전남",
    "description": null
  },
  {
    "id": "welchon-64",
    "name": "횡성 고라데이마을",
    "image": "https://www.welchon.com/upload/seasontheme/course/2025/09/7314fb0e-f631-49c6-9f35-2470126bb935.jpg",
    "lat": 37.64896204,
    "lng": 128.1392012,
    "address": "강원특별자치도 횡성군 청일면 봉명로 375-1",
    "province": "강원특별자치도",
    "description": null
  },
  {
    "id": "welchon-65",
    "name": "풍수원성당",
    "image": "https://www.welchon.com/upload/seasontheme/course/2025/09/a06f9cd6-242c-444c-a969-cf11c2e49ae1.jpg",
    "lat": 37.52903148,
    "lng": 127.8186822,
    "address": "강원특별자치도 횡성군 서원면 경강로유현1길 30",
    "province": "강원특별자치도",
    "description": null
  },
  {
    "id": "welchon-66",
    "name": "횡성호수길",
    "image": "https://www.welchon.com/upload/seasontheme/course/2025/09/f1ddd0cd-dcb6-4cd6-bc87-f9ccfc0891a0.jpg",
    "lat": 37.5455564,
    "lng": 128.0670138,
    "address": "강원특별자치도 횡성군 갑천면 태기로구방5길 40",
    "province": "강원특별자치도",
    "description": null
  },
  {
    "id": "welchon-67",
    "name": "미술관 자작나무숲",
    "image": "https://www.welchon.com/upload/seasontheme/course/2025/09/5f4cd1b9-b7c6-4a86-b7dc-dc340a00e2f0.jpg",
    "lat": 37.49276779,
    "lng": 128.050057,
    "address": "강원특별자치도 횡성군 우천면 한우로두곡5길 186",
    "province": "강원특별자치도",
    "description": null
  },
  {
    "id": "welchon-68",
    "name": "하동 의신마을",
    "image": "https://www.welchon.com/upload/seasontheme/course/2025/09/3d2ede7b-b946-4156-aa95-8fe03ad5a9e1.png",
    "lat": 35.28771826,
    "lng": 127.6479995,
    "address": "경남 하동군 화개면 화개로 1405-4",
    "province": "경남",
    "description": null
  },
  {
    "id": "welchon-69",
    "name": "하동야생차문화센터",
    "image": "https://www.welchon.com/upload/seasontheme/course/2025/09/77b85ecb-63ce-4f36-9005-c6ad5c3c130d.jpg",
    "lat": 35.22729236,
    "lng": 127.6429184,
    "address": "경남 하동군 화개면 쌍계로 571-25",
    "province": "경남",
    "description": null
  },
  {
    "id": "welchon-70",
    "name": "하동송림공원",
    "image": "https://www.welchon.com/upload/seasontheme/course/2025/09/3a40f898-ea34-443c-9d5f-43e5b9427986.jpg",
    "lat": 35.06395772,
    "lng": 127.7419356,
    "address": "경남 하동군 하동읍 섬진강대로 2107-22",
    "province": "경남",
    "description": null
  },
  {
    "id": "welchon-71",
    "name": "쌍계사",
    "image": "https://www.welchon.com/upload/seasontheme/course/2025/09/0c0bdc3e-45cc-4f2d-a5fd-f5e75eadcbf6.jpg",
    "lat": 35.23278611,
    "lng": 127.6510352,
    "address": "경남 하동군 화개면 쌍계사길 59",
    "province": "경남",
    "description": null
  },
  {
    "id": "welchon-72",
    "name": "영화 리틀 포레스트 촬영지",
    "image": "https://www.welchon.com/upload/seasontheme/course/2025/09/019bc9df-d3dd-4b8d-83b3-9e49f069f337.jpg",
    "lat": 36.17973569,
    "lng": 128.6645185,
    "address": "대구 군위군 우보면 미성5길 58-1",
    "province": "대구",
    "description": null
  },
  {
    "id": "welchon-73",
    "name": "인각사",
    "image": "https://www.welchon.com/upload/seasontheme/course/2025/09/2526a8e7-8dfe-4aa0-b9c0-b9bd429b0b18.jpg",
    "lat": 36.12807938,
    "lng": 128.7784271,
    "address": "대구 군위군 삼국유사면 삼국유사로 250",
    "province": "대구",
    "description": null
  },
  {
    "id": "welchon-74",
    "name": "화산산성 전망대",
    "image": "https://www.welchon.com/upload/seasontheme/course/2025/09/a23981d0-5b10-406e-aa94-2600c3a1ac4e.jpg",
    "lat": 36.09861865,
    "lng": 128.7685556,
    "address": "대구 군위군 삼국유사면 화산길 729-30",
    "province": "대구",
    "description": null
  },
  {
    "id": "welchon-75",
    "name": "인각사",
    "image": "https://www.welchon.com/upload/seasontheme/course/2025/09/789bdfd2-ac1c-4e09-8b9c-f2469dabe26f.png",
    "lat": 36.12807938,
    "lng": 128.7784271,
    "address": "대구 군위군 삼국유사면 삼국유사로 250",
    "province": "대구",
    "description": null
  },
  {
    "id": "welchon-76",
    "name": "화산산성 전망대",
    "image": "https://www.welchon.com/upload/seasontheme/course/2025/09/d20717bd-c4d7-4017-956e-1edbf64d4be5.png",
    "lat": 36.12807938,
    "lng": 128.7784271,
    "address": "대구 군위군 삼국유사면 삼국유사로 250",
    "province": "대구",
    "description": null
  },
  {
    "id": "welchon-77",
    "name": "하이원 추추파크 스위치백트레인",
    "image": "https://www.welchon.com/upload/seasontheme/course/2025/08/6c417bb1-0d21-430b-a815-4511faae8929.jpg",
    "lat": 37.18395443,
    "lng": 129.0385675,
    "address": "강원특별자치도 삼척시 도계읍 심포남길 99",
    "province": "강원특별자치도",
    "description": null
  },
  {
    "id": "welchon-78",
    "name": "삼척 덕풍계곡마을",
    "image": "https://www.welchon.com/upload/seasontheme/course/2025/08/02574997-0acb-4d24-af71-64e54366ae22.jpg",
    "lat": 37.12224076,
    "lng": 129.1583674,
    "address": "강원특별자치도 삼척시 가곡면 덕풍길 44",
    "province": "강원특별자치도",
    "description": null
  },
  {
    "id": "welchon-79",
    "name": "태백 구문소",
    "image": "https://www.welchon.com/upload/seasontheme/course/2025/08/344dd51a-3d60-4c22-bfa0-fdf4da5b9d64.jpg",
    "lat": 37.09484864,
    "lng": 129.0397121,
    "address": "강원특별자치도 태백시 태백로 2249 (동점동)",
    "province": "강원특별자치도",
    "description": null
  },
  {
    "id": "welchon-80",
    "name": "태백 구문소카페",
    "image": "https://www.welchon.com/upload/seasontheme/course/2025/08/6568660a-dfe4-45d9-8d3e-b1a911f02e2f.jpg",
    "lat": 37.09302009,
    "lng": 129.0380079,
    "address": "강원특별자치도 태백시 사군드리길 9 (동점동)",
    "province": "강원특별자치도",
    "description": null
  },
  {
    "id": "welchon-81",
    "name": "온달관광지",
    "image": "https://www.welchon.com/upload/seasontheme/course/2025/08/766c0eca-56e1-4459-8b48-4abe0392049f.jpg",
    "lat": 37.06295526,
    "lng": 128.4929233,
    "address": "충북 단양군 영춘면 온달로 23",
    "province": "충북",
    "description": null
  },
  {
    "id": "welchon-82",
    "name": "도담삼봉",
    "image": "https://www.welchon.com/upload/seasontheme/course/2025/08/1ab705b1-c6f2-464b-9a39-5343e8ddea8d.jpg",
    "lat": 37.00029492,
    "lng": 128.3448007,
    "address": "충북 단양군 매포읍 삼봉로 644",
    "province": "충북",
    "description": null
  },
  {
    "id": "welchon-83",
    "name": "단양 한드미마을",
    "image": "https://www.welchon.com/upload/seasontheme/course/2025/08/94f520e8-5f91-408e-b896-d85133cce430.jpg",
    "lat": 36.99104156,
    "lng": 128.4393073,
    "address": "충북 단양군 가곡면 한드미길 37",
    "province": "충북",
    "description": null
  },
  {
    "id": "welchon-84",
    "name": "구인사",
    "image": "https://www.welchon.com/upload/seasontheme/course/2025/08/d6f4fa68-aa9a-4919-b475-ca4b6c9b1843.jpg",
    "lat": 37.03182943,
    "lng": 128.4808049,
    "address": "충북 단양군 영춘면 구인사길 73",
    "province": "충북",
    "description": null
  },
  {
    "id": "welchon-85",
    "name": "무주반디랜드",
    "image": "https://www.welchon.com/upload/seasontheme/course/2025/07/b1580348-5b03-42ee-bd0c-f0a4de611221.jpg",
    "lat": 36.01224499,
    "lng": 127.7614843,
    "address": "전북특별자치도 무주군 설천면 무설로 1324",
    "province": "전북특별자치도",
    "description": null
  },
  {
    "id": "welchon-86",
    "name": "구천동어사길",
    "image": "https://www.welchon.com/upload/seasontheme/course/2025/07/b9153fc1-9fe8-42a3-99bc-bb17e0f0db9a.jpg",
    "lat": 35.88968858,
    "lng": 127.7781483,
    "address": "전북특별자치도 무주군 설천면 백련사길 96",
    "province": "전북특별자치도",
    "description": null
  },
  {
    "id": "welchon-87",
    "name": "무풍승지마을",
    "image": "https://www.welchon.com/upload/seasontheme/course/2025/07/8ddb6310-eff3-4087-9e1c-8f9edfbe932f.jpg",
    "lat": 35.96006274,
    "lng": 127.8397349,
    "address": "전북특별자치도 무주군 무풍면 철목길 61",
    "province": "전북특별자치도",
    "description": null
  },
  {
    "id": "welchon-88",
    "name": "태권도원",
    "image": "https://www.welchon.com/upload/seasontheme/course/2025/07/4f167d9b-3a43-46e1-b4a6-f50ee9051f38.jpg",
    "lat": 36.00927889,
    "lng": 127.778727,
    "address": "전북특별자치도 무주군 설천면 무설로 1482",
    "province": "전북특별자치도",
    "description": null
  },
  {
    "id": "welchon-89",
    "name": "구천동 계곡",
    "image": "https://www.welchon.com/upload/seasontheme/course/2025/07/e06bdd9a-0132-4777-a444-c9276a8ca954.jpg",
    "lat": 35.90088735,
    "lng": 127.7752516,
    "address": "전북특별자치도 무주군 설천면 구천동1로 159",
    "province": "전북특별자치도",
    "description": null
  },
  {
    "id": "welchon-90",
    "name": "청주 청남대",
    "image": "https://www.welchon.com/upload/seasontheme/course/2025/07/815fea62-ab9e-40c9-a015-b18ffa0ef217.jpg",
    "lat": 36.4622489,
    "lng": 127.4900949,
    "address": "충북 청주시 상당구 문의면 청남대길 646",
    "province": "충북",
    "description": null
  },
  {
    "id": "welchon-91",
    "name": "보은 말티재",
    "image": "https://www.welchon.com/upload/seasontheme/course/2025/07/00565beb-f7c5-4484-ad1e-eb7b4dc2cb68.jpg",
    "lat": 36.50316731,
    "lng": 127.8011402,
    "address": "충북 보은군 속리산면 속리산로 481",
    "province": "충북",
    "description": null
  },
  {
    "id": "welchon-92",
    "name": "하얀민들레마을",
    "image": "https://www.welchon.com/upload/seasontheme/course/2025/07/a4491215-a524-43fd-bc09-f1751c800952.jpg",
    "lat": 36.49292589,
    "lng": 127.6110236,
    "address": "충북 보은군 회인면 부수길 111-12",
    "province": "충북",
    "description": null
  },
  {
    "id": "welchon-93",
    "name": "옥천 수생식물학습원",
    "image": "https://www.welchon.com/upload/seasontheme/course/2025/07/6aac91b2-55d4-41e2-bef6-ab5fbb2d4774.jpg",
    "lat": 36.3913954,
    "lng": 127.55306,
    "address": "충북 옥천군 군북면 방아실길 255",
    "province": "충북",
    "description": null
  },
  {
    "id": "welchon-94",
    "name": "보은 법주사",
    "image": "https://www.welchon.com/upload/seasontheme/course/2025/07/2b36bd09-3f0f-4eef-98bd-f39df620e407.jpg",
    "lat": 36.54112018,
    "lng": 127.832938,
    "address": "충북 보은군 속리산면 법주사로 405",
    "province": "충북",
    "description": null
  },
  {
    "id": "welchon-95",
    "name": "무심원",
    "image": "https://www.welchon.com/upload/seasontheme/course/2025/06/cd4292f7-8b0e-4c11-aca0-c3e0de664879.png",
    "lat": 36.01146028,
    "lng": 127.7621138,
    "address": "전북특별자치도 무주군 설천면 무설로 1338-1",
    "province": "전북특별자치도",
    "description": null
  },
  {
    "id": "welchon-96",
    "name": "칠연계곡",
    "image": "https://www.welchon.com/upload/seasontheme/course/2025/06/57eacac4-b35f-4935-aaa9-3d5cdb19032b.png",
    "lat": 35.8377712,
    "lng": 127.7000419,
    "address": "전북특별자치도 무주군 안성면 칠연로 608",
    "province": "전북특별자치도",
    "description": null
  },
  {
    "id": "welchon-97",
    "name": "머루와인동굴",
    "image": "https://www.welchon.com/upload/seasontheme/course/2025/06/bd286bd1-b2c8-4f58-9ec1-4e90f4d17703.png",
    "lat": 35.96492186,
    "lng": 127.6975189,
    "address": "전북특별자치도 무주군 적상면 산성로 359",
    "province": "전북특별자치도",
    "description": null
  },
  {
    "id": "welchon-98",
    "name": "무주 솔다박마을",
    "image": "https://www.welchon.com/upload/seasontheme/course/2025/06/ea79145d-2606-4057-a887-589533e34edf.png",
    "lat": 35.83460523,
    "lng": 127.6439044,
    "address": "전북특별자치도 무주군 안성면 장무로 1637",
    "province": "전북특별자치도",
    "description": null
  },
  {
    "id": "welchon-99",
    "name": "양평 수미마을",
    "image": "https://www.welchon.com/upload/seasontheme/course/2025/06/87decbcd-da19-4e6d-9c7b-7f76e9a9b9c1.png",
    "lat": 37.51449689,
    "lng": 127.6573952,
    "address": "경기 양평군 단월면 곱다니길 55-2",
    "province": "경기",
    "description": null
  },
  {
    "id": "welchon-100",
    "name": "양평양떼목장",
    "image": "https://www.welchon.com/upload/seasontheme/course/2025/06/a003a8a4-a7a0-46c3-b915-a27f80fac387.png",
    "lat": 37.51541732,
    "lng": 127.6288222,
    "address": "경기 양평군 용문면 은고갯길 112",
    "province": "경기",
    "description": null
  },
  {
    "id": "welchon-101",
    "name": "경기도민물고기생태학습관",
    "image": "https://www.welchon.com/upload/seasontheme/course/2025/06/25e86f57-6db4-4ae0-9f6f-3636cf0fb022.png",
    "lat": 37.5119592,
    "lng": 127.6388831,
    "address": "경기 양평군 용문면 상광길 23-2",
    "province": "경기",
    "description": null
  },
  {
    "id": "welchon-102",
    "name": "용문사",
    "image": "https://www.welchon.com/upload/seasontheme/course/2025/06/883da411-126a-4d0b-ae4d-85b75954042a.png",
    "lat": 37.55021797,
    "lng": 127.5704477,
    "address": "경기 양평군 용문면 용문산로 782",
    "province": "경기",
    "description": null
  },
  {
    "id": "welchon-103",
    "name": "곡성세계장미축제",
    "image": "https://www.welchon.com/upload/seasontheme/course/2025/05/c0405796-8b43-4ccb-8dc4-c6cb47cd4f5e.jpg",
    "lat": 35.27753157,
    "lng": 127.3082866,
    "address": "전남 곡성군 오곡면 기차마을로 232",
    "province": "전남",
    "description": null
  },
  {
    "id": "welchon-104",
    "name": "내포긴들마을",
    "image": "https://www.welchon.com/upload/seasontheme/course/2025/05/3c5413c5-20bf-4e66-bd60-0dcf2a2e9bc3.jpg",
    "lat": 37.00560147,
    "lng": 127.7199031,
    "address": "충북 충주시 신니면 내포1길 30",
    "province": "충북",
    "description": null
  },
  {
    "id": "welchon-105",
    "name": "활옥동굴",
    "image": "https://www.welchon.com/upload/seasontheme/course/2025/05/1ec3c531-84e2-4ba6-a51c-d70cf552ce38.jpg",
    "lat": 36.96183869,
    "lng": 128.0070832,
    "address": "충북 충주시 목벌안길 26 (목벌동)",
    "province": "충북",
    "description": null
  },
  {
    "id": "welchon-106",
    "name": "문경큰사람농촌체험휴양마을",
    "image": "https://www.welchon.com/upload/seasontheme/course/2025/05/4bc47d61-70c4-4eb2-94e6-303f698fded3.jpg",
    "lat": 36.72264349,
    "lng": 128.2415008,
    "address": "경북 문경시 산북면 거무길 9",
    "province": "경북",
    "description": null
  },
  {
    "id": "welchon-107",
    "name": "문경찻사발축제",
    "image": "https://www.welchon.com/upload/seasontheme/course/2025/05/28711ffd-1995-47db-a111-6813a1b18914.jpg",
    "lat": 36.76240156,
    "lng": 128.0755391,
    "address": "경북 문경시 문경읍 새재로 943",
    "province": "경북",
    "description": null
  },
  {
    "id": "welchon-108",
    "name": "연꽃두부 식당",
    "image": "https://www.welchon.com/upload/seasontheme/course/2025/05/50136b4f-7936-41dd-b440-e224a0c380c9.png",
    "lat": 35.77939653,
    "lng": 127.3962912,
    "address": "전북특별자치도 진안군 진안읍 전진로 3071-21",
    "province": "전북특별자치도",
    "description": null
  },
  {
    "id": "welchon-109",
    "name": "진안 원영장 꽃잔디 축제",
    "image": "https://www.welchon.com/upload/seasontheme/course/2025/05/ffcb24a0-113d-40b8-8722-f1c8c9930469.png",
    "lat": 35.78033826,
    "lng": 127.3965922,
    "address": "전북특별자치도 진안군 진안읍 전진로 3071-31",
    "province": "전북특별자치도",
    "description": null
  },
  {
    "id": "welchon-110",
    "name": "함평나비대축제",
    "image": "https://www.welchon.com/upload/seasontheme/course/2025/04/5a8c2d46-c747-4e37-8d9c-65056b835671.jpg",
    "lat": 35.05612701,
    "lng": 126.5199063,
    "address": "전남 함평군 함평읍 곤재로 27",
    "province": "전남",
    "description": null
  },
  {
    "id": "welchon-111",
    "name": "모평마을",
    "image": "https://www.welchon.com/upload/seasontheme/course/2025/04/44a5a939-757d-4012-b6eb-4b1ab914c796.jpg",
    "lat": 35.16025975,
    "lng": 126.5958591,
    "address": "전남 함평군 해보면 상모길 61-4",
    "province": "전남",
    "description": null
  },
  {
    "id": "welchon-112",
    "name": "바나나생태나라",
    "image": "https://www.welchon.com/upload/seasontheme/course/2025/04/2c28ade8-2804-42a4-8611-68ca536b3471.jpg",
    "lat": 35.07209019,
    "lng": 126.5019883,
    "address": "전남 함평군 함평읍 대천길 16-20",
    "province": "전남",
    "description": null
  },
  {
    "id": "welchon-113",
    "name": "진안 원영장 꽃잔디 축제",
    "image": "https://www.welchon.com/upload/seasontheme/course/2025/04/76ad44e6-61b2-43bb-81b1-92b2e18c89cd.png",
    "lat": 35.78033826,
    "lng": 127.3965922,
    "address": "전북특별자치도 진안군 진안읍 전진로 3071-31",
    "province": "전북특별자치도",
    "description": null
  },
  {
    "id": "welchon-114",
    "name": "연꽃두부 식당",
    "image": "https://www.welchon.com/upload/seasontheme/course/2025/04/4a4bf25b-68de-441e-b94a-04f6a546c3e6.png",
    "lat": 35.77939653,
    "lng": 127.3962912,
    "address": "전북특별자치도 진안군 진안읍 전진로 3071-21",
    "province": "전북특별자치도",
    "description": null
  },
  {
    "id": "welchon-115",
    "name": "이천산수유마을",
    "image": "https://www.welchon.com/upload/seasontheme/course/2025/04/4a171ddc-da96-4c47-800e-a45a6f68207e.png",
    "lat": 37.34077594,
    "lng": 127.4622955,
    "address": "경기 이천시 백사면 원적로775번길 17",
    "province": "경기",
    "description": null
  },
  {
    "id": "welchon-116",
    "name": "강민주의 들밥",
    "image": "https://www.welchon.com/upload/seasontheme/course/2025/04/17dfa1c4-0645-4505-aee9-8a0b5122f4b1.png",
    "lat": 37.22151289,
    "lng": 127.3679378,
    "address": "경기 이천시 마장면 지산로22번길 17",
    "province": "경기",
    "description": null
  },
  {
    "id": "welchon-117",
    "name": "이천도자기축제",
    "image": "https://www.welchon.com/upload/seasontheme/course/2025/04/049d775f-794a-470a-b617-24a19c7a0a8a.png",
    "lat": 37.29127465,
    "lng": 127.3806336,
    "address": "경기 이천시 신둔면 도자예술로62번길 123",
    "province": "경기",
    "description": null
  },
  {
    "id": "welchon-118",
    "name": "고창청보리밭축제",
    "image": "https://www.welchon.com/upload/seasontheme/course/2025/04/a838c4e7-6e5e-4a0a-82a5-b05fe560dbb6.png",
    "lat": 35.37534821,
    "lng": 126.5429077,
    "address": "전북특별자치도 고창군 공음면 학원농장길 154",
    "province": "전북특별자치도",
    "description": null
  },
  {
    "id": "welchon-119",
    "name": "책마을해리",
    "image": "https://www.welchon.com/upload/seasontheme/course/2025/04/e16e2d12-3e6f-4544-ba23-160078ff3954.png",
    "lat": 35.47004804,
    "lng": 126.4832768,
    "address": "전북특별자치도 고창군 해리면 월봉성산길 88",
    "province": "전북특별자치도",
    "description": null
  },
  {
    "id": "welchon-120",
    "name": "선운사",
    "image": "https://www.welchon.com/upload/seasontheme/course/2025/04/72e89d1d-933d-4b55-b274-fc2f36ca2353.png",
    "lat": 35.49769882,
    "lng": 126.5795167,
    "address": "전북특별자치도 고창군 아산면 선운사로 250",
    "province": "전북특별자치도",
    "description": null
  },
  {
    "id": "welchon-121",
    "name": "오동도",
    "image": "https://www.welchon.com/upload/seasontheme/course/2025/04/26e4206d-e839-43c0-a905-b6807f4a53c3.jpg",
    "lat": 34.74447976,
    "lng": 127.7675258,
    "address": "전남 여수시 오동도로 238-32 (수정동)",
    "province": "전남",
    "description": null
  },
  {
    "id": "welchon-122",
    "name": "갓고을마을",
    "image": "https://www.welchon.com/upload/seasontheme/course/2025/04/2c146669-7a6a-4bdf-947a-b168b45bff79.jpg",
    "lat": 34.63988056,
    "lng": 127.7868007,
    "address": "전남 여수시 돌산읍 향일암로 913",
    "province": "전남",
    "description": null
  },
  {
    "id": "welchon-123",
    "name": "명동게장",
    "image": "https://www.welchon.com/upload/seasontheme/course/2025/04/adb6e4bf-ec80-4e41-a8ef-27bdf78f00b8.jpg",
    "lat": 34.7329194,
    "lng": 127.7219246,
    "address": "전남 여수시 봉산남4길 23-26 (봉산동)",
    "province": "전남",
    "description": null
  },
  {
    "id": "welchon-124",
    "name": "카페바뇨",
    "image": "https://www.welchon.com/upload/seasontheme/course/2025/04/d167cfbe-4cdd-406f-addb-241b53801e5d.jpg",
    "lat": 36.71078869,
    "lng": 126.5458338,
    "address": "충남 서산시 해미면 읍성마을4길 19",
    "province": "충남",
    "description": null
  },
  {
    "id": "welchon-125",
    "name": "중리어촌체험마을",
    "image": "https://www.welchon.com/upload/seasontheme/course/2025/04/b758fa21-a23f-41c7-a6bb-f5330f6fc462.jpg",
    "lat": 36.88040246,
    "lng": 126.3845438,
    "address": "충남 서산시 지곡면 어름들2길 66",
    "province": "충남",
    "description": null
  },
  {
    "id": "welchon-126",
    "name": "개심사",
    "image": "https://www.welchon.com/upload/seasontheme/course/2025/04/e96ebef4-cf98-49c1-b469-eccb4afc28c6.jpg",
    "lat": 36.74690048,
    "lng": 126.5899686,
    "address": "충남 서산시 운산면 개심사로 321-86",
    "province": "충남",
    "description": null
  },
  {
    "id": "welchon-127",
    "name": "삼척신리너와마을",
    "image": "https://www.welchon.com/upload/seasontheme/course/2025/04/76bad548-029d-4ec6-b8ef-63ac825e8e4f.png",
    "lat": 37.18373871,
    "lng": 129.1299566,
    "address": "강원특별자치도 삼척시 도계읍 문의재로 1113",
    "province": "강원특별자치도",
    "description": null
  },
  {
    "id": "welchon-128",
    "name": "삼척맹방유채꽃축제",
    "image": "https://www.welchon.com/upload/seasontheme/course/2025/04/c4a5fb86-8655-4f86-abd7-ed021d8e976d.png",
    "lat": 37.40410347,
    "lng": 129.2075335,
    "address": "강원특별자치도 삼척시 근덕면 상맹방길 295",
    "province": "강원특별자치도",
    "description": null
  },
  {
    "id": "welchon-129",
    "name": "특미관",
    "image": "https://www.welchon.com/upload/seasontheme/course/2025/04/e20cff4f-f355-4732-88f7-d88ab8932f86.png",
    "lat": 34.76513346,
    "lng": 127.077572,
    "address": "전남 보성군 보성읍 봉화로 53",
    "province": "전남",
    "description": null
  },
  {
    "id": "welchon-130",
    "name": "대한다원보성녹차밭",
    "image": "https://www.welchon.com/upload/seasontheme/course/2025/04/875d14cb-c8c5-434b-b10c-9e91b7629a58.png",
    "lat": 34.71479875,
    "lng": 127.0809569,
    "address": "전남 보성군 보성읍 녹차로 763-43",
    "province": "전남",
    "description": null
  },
  {
    "id": "welchon-131",
    "name": "다향울림촌휴양마을",
    "image": "https://www.welchon.com/upload/seasontheme/course/2025/04/49c56640-94cd-455e-b95f-a1277ffd89e7.png",
    "lat": 34.66557022,
    "lng": 127.0814277,
    "address": "전남 보성군 회천면 남부관광로 2248",
    "province": "전남",
    "description": null
  },
  {
    "id": "welchon-132",
    "name": "남지철교",
    "image": "https://www.welchon.com/upload/seasontheme/course/2025/04/35b25971-fec3-470d-87a0-36ec95f05a20.png",
    "lat": 35.38899062,
    "lng": 128.4779942,
    "address": "경남 창녕군 남지읍 낙동로 489",
    "province": "경남",
    "description": null
  },
  {
    "id": "welchon-133",
    "name": "남마뮤지엄",
    "image": "https://www.welchon.com/upload/seasontheme/course/2025/04/2ed53273-59d5-4fd3-93e5-dbc93e013f05.png",
    "lat": 35.38619444,
    "lng": 128.4794102,
    "address": "경남 창녕군 남지읍 남지강변길 100",
    "province": "경남",
    "description": null
  },
  {
    "id": "welchon-134",
    "name": "성곡오색별빛마을",
    "image": "https://www.welchon.com/upload/seasontheme/course/2025/04/1add422d-bba0-4dfc-b39d-58b31a41b8a2.png",
    "lat": 35.63642678,
    "lng": 128.5210046,
    "address": "경남 창녕군 성산면 연당대산로 38",
    "province": "경남",
    "description": null
  },
  {
    "id": "welchon-135",
    "name": "성곡오색별빛마을",
    "image": "https://www.welchon.com/upload/seasontheme/course/2025/03/02a082f9-6b14-4735-a9b5-dabbcb8bb232.png",
    "lat": 35.63642678,
    "lng": 128.5210046,
    "address": "경남 창녕군 성산면 연당대산로 38",
    "province": "경남",
    "description": null
  },
  {
    "id": "welchon-136",
    "name": "남지철교",
    "image": "https://www.welchon.com/upload/seasontheme/course/2025/03/41002e58-4e8f-470a-8f66-4529f696fc27.png",
    "lat": 35.38899062,
    "lng": 128.4779942,
    "address": "경남 창녕군 남지읍 낙동로 489",
    "province": "경남",
    "description": null
  },
  {
    "id": "welchon-137",
    "name": "남마뮤지엄",
    "image": "https://www.welchon.com/upload/seasontheme/course/2025/03/dff987c0-9a7d-4cb1-b94f-f0be96eee77a.png",
    "lat": 35.38619444,
    "lng": 128.4794102,
    "address": "경남 창녕군 남지읍 남지강변길 100",
    "province": "경남",
    "description": null
  },
  {
    "id": "welchon-138",
    "name": "단성벽화마을",
    "image": "https://www.welchon.com/upload/seasontheme/course/2025/03/5be2f364-933c-4717-9f7f-8b6c75cfab5c.png",
    "lat": 36.93679247,
    "lng": 128.3236101,
    "address": "충북 단양군 단성면 충혼로 16",
    "province": "충북",
    "description": null
  },
  {
    "id": "welchon-139",
    "name": "만천하스카이워크",
    "image": "https://www.welchon.com/upload/seasontheme/course/2025/03/27dd26db-a3c7-4bd3-892d-4e1fafef631a.png",
    "lat": 36.97760528,
    "lng": 128.3370971,
    "address": "충북 단양군 적성면 옷바위길 10",
    "province": "충북",
    "description": null
  },
  {
    "id": "welchon-140",
    "name": "도담삼봉",
    "image": "https://www.welchon.com/upload/seasontheme/course/2025/03/251c23de-b2f5-4f04-b98a-7c312ee06669.png",
    "lat": 37.00029492,
    "lng": 128.3448007,
    "address": "충북 단양군 매포읍 삼봉로 644",
    "province": "충북",
    "description": null
  },
  {
    "id": "welchon-141",
    "name": "소식다료 차실",
    "image": "https://www.welchon.com/upload/seasontheme/course/2025/03/222a5910-117e-4b6d-a8a2-260fb3f7382a.png",
    "lat": 35.20886229,
    "lng": 127.4604531,
    "address": "전남 구례군 구례읍 북교뒷길 16-2",
    "province": "전남",
    "description": null
  },
  {
    "id": "welchon-142",
    "name": "구례 산수유 축제",
    "image": "https://www.welchon.com/upload/seasontheme/course/2025/03/f037ed9a-0907-4e18-aa29-3b83c9d633a1.png",
    "lat": 35.31945367,
    "lng": 127.4684999,
    "address": "전남 구례군 산동면 상관1길 49-26",
    "province": "전남",
    "description": null
  },
  {
    "id": "welchon-143",
    "name": "지리산 치즈랜드",
    "image": "https://www.welchon.com/upload/seasontheme/course/2025/03/8ca95df7-4891-4cce-9946-b917ced6c0d3.png",
    "lat": 35.27789557,
    "lng": 127.4217328,
    "address": "전남 구례군 산동면 산업로 1590-62",
    "province": "전남",
    "description": null
  },
  {
    "id": "welchon-144",
    "name": "그림같은수목원",
    "image": "https://www.welchon.com/upload/seasontheme/course/2025/03/531d7190-5744-4d60-96c8-cd319bf0d5ef.png",
    "lat": 36.51977251,
    "lng": 126.6295606,
    "address": "충남 홍성군 광천읍 충서로400번길 102-36",
    "province": "충남",
    "description": null
  },
  {
    "id": "welchon-145",
    "name": "남당항",
    "image": "https://www.welchon.com/upload/seasontheme/course/2025/03/765b4e66-e935-49b6-a6f4-9f13e1442afd.png",
    "lat": 36.53883088,
    "lng": 126.4722831,
    "address": "충남 홍성군 서부면 남당항로213번길 1-1",
    "province": "충남",
    "description": null
  },
  {
    "id": "welchon-146",
    "name": "남당 노을전망대",
    "image": "https://www.welchon.com/upload/seasontheme/course/2025/03/805f5883-ed7f-4672-81da-b7dbbc27435f.png",
    "lat": 36.5447661,
    "lng": 126.4654127,
    "address": "충남 홍성군 서부면 남당항로213번길 96",
    "province": "충남",
    "description": null
  },
  {
    "id": "welchon-147",
    "name": "섬진강고향집재첩국",
    "image": "https://www.welchon.com/upload/seasontheme/course/2025/03/3a612bc4-bd32-4ce3-89b7-12b908e9de9f.png",
    "lat": 35.06158428,
    "lng": 127.7366136,
    "address": "전남 광양시 다압면 원동길 70-21",
    "province": "전남",
    "description": null
  },
  {
    "id": "welchon-148",
    "name": "광양매화문화관",
    "image": "https://www.welchon.com/upload/seasontheme/course/2025/03/86051055-909f-401f-ac37-99dc4a9ef594.png",
    "lat": 35.07665863,
    "lng": 127.7180474,
    "address": "전남 광양시 다압면 지막1길 21",
    "province": "전남",
    "description": null
  },
  {
    "id": "welchon-149",
    "name": "제24회 광양매화축제",
    "image": "https://www.welchon.com/upload/seasontheme/course/2025/03/23036aba-7c82-45a1-b239-bf419377b5fc.png",
    "lat": 35.08034909,
    "lng": 127.7153051,
    "address": "전남 광양시 다압면 섬진강매화로 1563-1",
    "province": "전남",
    "description": null
  },
  {
    "id": "welchon-150",
    "name": "국토정중앙천문대",
    "image": "https://www.welchon.com/upload/seasontheme/course/2025/03/73a54373-6d56-40fb-af83-95d9a2a6317e.png",
    "lat": 38.06893073,
    "lng": 128.0296771,
    "address": "강원특별자치도 양구군 국토정중앙면 국토정중앙로 127",
    "province": "강원특별자치도",
    "description": null
  },
  {
    "id": "welchon-151",
    "name": "시래원",
    "image": "https://www.welchon.com/upload/seasontheme/course/2025/03/d66643a4-7851-4c74-b555-bb97b445ee1e.png",
    "lat": 38.07486948,
    "lng": 128.0236611,
    "address": "강원특별자치도 양구군 국토정중앙면 봉화산로 457",
    "province": "강원특별자치도",
    "description": null
  },
  {
    "id": "welchon-152",
    "name": "국토정중앙배꼽마을",
    "image": "https://www.welchon.com/upload/seasontheme/course/2025/03/e9e2cbbc-f933-43f6-bad3-cb6b9fc6cc3a.png",
    "lat": 38.07177712,
    "lng": 128.0231635,
    "address": "강원특별자치도 양구군 국토정중앙면 봉화산로 425",
    "province": "강원특별자치도",
    "description": null
  },
  {
    "id": "welchon-153",
    "name": "강화 화개산 모노레일",
    "image": "https://www.welchon.com/upload/seasontheme/course/2025/02/f0f59047-afab-4d47-8fce-a8fd2ab6b4cf.png",
    "lat": 37.78366648,
    "lng": 126.2902043,
    "address": "인천 강화군 교동면 교동동로471번길 6-60",
    "province": "인천",
    "description": null
  },
  {
    "id": "welchon-154",
    "name": "강화도 왕방마을 얼음축제",
    "image": "https://www.welchon.com/upload/seasontheme/course/2025/02/45bec77d-b654-4eec-a6c8-5a51172e75b2.png",
    "lat": 37.69890534,
    "lng": 126.4312513,
    "address": "인천 강화군 양도면 중앙로787번길 8-1",
    "province": "인천",
    "description": null
  },
  {
    "id": "welchon-155",
    "name": "아트팩토리 참기름",
    "image": "https://www.welchon.com/upload/seasontheme/course/2025/02/ea780fb8-65ba-468f-9798-519bfa9d0c9a.png",
    "lat": 37.6677837,
    "lng": 126.4801993,
    "address": "인천 강화군 길상면 까치골길 109",
    "province": "인천",
    "description": null
  },
  {
    "id": "welchon-156",
    "name": "2025 삼척 정월대보름제",
    "image": "https://www.welchon.com/upload/seasontheme/course/2025/02/117e2be6-dc80-4b52-b55a-d05455772b27.png",
    "lat": 37.438962,
    "lng": 129.1601392,
    "address": "강원특별자치도 삼척시 엑스포로 45 (성남동)",
    "province": "강원특별자치도",
    "description": null
  },
  {
    "id": "welchon-157",
    "name": "삼척 세계동굴 엑스포타운",
    "image": "https://www.welchon.com/upload/seasontheme/course/2025/02/8c36f90e-05aa-4641-b108-ff8ddfcf6abd.png",
    "lat": 37.43807084,
    "lng": 129.1582537,
    "address": "강원특별자치도 삼척시 엑스포로 69 (성남동)",
    "province": "강원특별자치도",
    "description": null
  },
  {
    "id": "welchon-158",
    "name": "성원닭갈비",
    "image": "https://www.welchon.com/upload/seasontheme/course/2025/02/53f3952b-c18f-4091-b632-69f5d46fbf73.png",
    "lat": 37.44465909,
    "lng": 129.1779763,
    "address": "강원특별자치도 삼척시 정상안1길 14-32 (정상동)",
    "province": "강원특별자치도",
    "description": null
  },
  {
    "id": "welchon-159",
    "name": "전통술박물관 산사원",
    "image": "https://www.welchon.com/upload/seasontheme/course/2025/02/40e82e7b-ff61-4d09-8cfd-57edbef91b71.png",
    "lat": 37.90599568,
    "lng": 127.3099048,
    "address": "경기 포천시 화현면 화동로432번길 25",
    "province": "경기",
    "description": null
  },
  {
    "id": "welchon-160",
    "name": "포천아트밸리",
    "image": "https://www.welchon.com/upload/seasontheme/course/2025/02/3f2fd97f-0e8a-4c5c-b238-155f7f58c5cd.png",
    "lat": 37.92344665,
    "lng": 127.2365009,
    "address": "경기 포천시 신북면 아트밸리로 234",
    "province": "경기",
    "description": null
  },
  {
    "id": "welchon-161",
    "name": "아딸농원",
    "image": "https://www.welchon.com/upload/seasontheme/course/2025/02/a0995942-903c-4df4-8bb8-74692df7deaa.png",
    "lat": 37.8219921,
    "lng": 127.159257,
    "address": "경기 포천시 소흘읍 죽엽산로109번길 13",
    "province": "경기",
    "description": null
  },
  {
    "id": "welchon-162",
    "name": "청도 프로방스",
    "image": "https://www.welchon.com/upload/seasontheme/course/2025/02/c5e09b1c-d609-449b-9a72-05af348d3eed.png",
    "lat": 35.68410115,
    "lng": 128.7181844,
    "address": "경북 청도군 화양읍 이슬미로 272-23",
    "province": "경북",
    "description": null
  },
  {
    "id": "welchon-163",
    "name": "시골곰탕",
    "image": "https://www.welchon.com/upload/seasontheme/course/2025/02/8d3c5e5c-1522-4006-bea8-bda8552763da.png",
    "lat": 35.68946792,
    "lng": 128.7185336,
    "address": "경북 청도군 화양읍 온천길 28-4",
    "province": "경북",
    "description": null
  },
  {
    "id": "welchon-164",
    "name": "청도 소싸움 미디어체험관",
    "image": "https://www.welchon.com/upload/seasontheme/course/2025/02/8409469f-a3ae-42bc-bf25-8ae61fcd7752.png",
    "lat": 35.68522526,
    "lng": 128.7242011,
    "address": "경북 청도군 화양읍 남성현로 346",
    "province": "경북",
    "description": null
  },
  {
    "id": "welchon-165",
    "name": "청도 소싸움축제",
    "image": "https://www.welchon.com/upload/seasontheme/course/2025/02/7198ad36-4ae6-43b3-a773-d1b84a3b4fda.png",
    "lat": 35.68673459,
    "lng": 128.7251449,
    "address": "경북 청도군 화양읍 남성현로 348",
    "province": "경북",
    "description": null
  },
  {
    "id": "welchon-166",
    "name": "수안보 온천 족욕체험장",
    "image": "https://www.welchon.com/upload/seasontheme/course/2025/02/af8a282e-32d5-4250-9fdf-e2fe259510ad.png",
    "lat": 36.84607076,
    "lng": 127.9893275,
    "address": "충북 충주시 수안보면 주정산로 35",
    "province": "충북",
    "description": null
  },
  {
    "id": "welchon-167",
    "name": "오미가",
    "image": "https://www.welchon.com/upload/seasontheme/course/2025/02/b3df521c-30cf-4a0e-a7b2-42cf208e65f5.png",
    "lat": 36.84750935,
    "lng": 127.9898432,
    "address": "충북 충주시 수안보면 주정산로 19",
    "province": "충북",
    "description": null
  },
  {
    "id": "welchon-168",
    "name": "중앙탑의상실",
    "image": "https://www.welchon.com/upload/seasontheme/course/2025/02/7f076d03-5a9e-43bf-8271-c2407f35fdd4.png",
    "lat": 37.01829106,
    "lng": 127.8661276,
    "address": "충북 충주시 중앙탑면 탑정안길 10",
    "province": "충북",
    "description": null
  },
  {
    "id": "welchon-169",
    "name": "쌀겨효소테라피",
    "image": "https://www.welchon.com/upload/seasontheme/course/2025/02/d3a6dd60-6e4b-4963-bc4d-3776aca5355a.png",
    "lat": 37.04486837,
    "lng": 127.9274023,
    "address": "충북 충주시 금가면 충원대로 1355",
    "province": "충북",
    "description": null
  },
  {
    "id": "welchon-170",
    "name": "산촌식당",
    "image": "https://www.welchon.com/upload/seasontheme/course/2025/01/8f376c93-8c30-46f0-8244-ffa5569d25ba.png",
    "lat": 37.71452286,
    "lng": 128.8280713,
    "address": "강원특별자치도 강릉시 성산면 구산길 83",
    "province": "강원특별자치도",
    "description": null
  },
  {
    "id": "welchon-171",
    "name": "대관령 황태이야기",
    "image": "https://www.welchon.com/upload/seasontheme/course/2025/01/8984126f-5ad1-491a-ad93-2fe62ce957f1.png",
    "lat": 37.66533346,
    "lng": 128.7094332,
    "address": "강원특별자치도 평창군 대관령면 송전길 8",
    "province": "강원특별자치도",
    "description": null
  },
  {
    "id": "welchon-172",
    "name": "대관령눈꽃축제",
    "image": "https://www.welchon.com/upload/seasontheme/course/2025/01/c5cfd741-998e-4799-8002-4dba44ca3610.png",
    "lat": 37.70493355,
    "lng": 128.7017723,
    "address": "강원특별자치도 평창군 대관령면 사부랑길 224-2",
    "province": "강원특별자치도",
    "description": null
  },
  {
    "id": "welchon-173",
    "name": "로컬커피",
    "image": "https://www.welchon.com/upload/seasontheme/course/2025/01/77253196-6d70-4c7a-bb2e-ad98b6f3c257.png",
    "lat": 36.45865429,
    "lng": 127.1182784,
    "address": "충남 공주시 용당길 55-7 (교동)",
    "province": "충남",
    "description": null
  },
  {
    "id": "welchon-174",
    "name": "겨울공주 군밤축제",
    "image": "https://www.welchon.com/upload/seasontheme/course/2025/01/b17ce38d-9da7-4785-a6d5-aac1daf54b89.png",
    "lat": 36.47021499,
    "lng": 127.1274388,
    "address": "충남 공주시 금벽로 368 (신관동)",
    "province": "충남",
    "description": null
  },
  {
    "id": "welchon-175",
    "name": "무령왕릉",
    "image": "https://www.welchon.com/upload/seasontheme/course/2025/01/0770008a-d2af-4603-8cc0-de8419ad7629.png",
    "lat": 36.46244576,
    "lng": 127.1129779,
    "address": "충남 공주시 왕릉로 37 (웅진동)",
    "province": "충남",
    "description": null
  },
  {
    "id": "welchon-176",
    "name": "솥뚜껑 매운탕",
    "image": "https://www.welchon.com/upload/seasontheme/course/2025/01/8f12c2cf-2a9b-4f08-8c4d-99d113cfa60b.png",
    "lat": 36.47939928,
    "lng": 127.0475059,
    "address": "충남 공주시 사곡면 아래안영골길 4",
    "province": "충남",
    "description": null
  },
  {
    "id": "welchon-177",
    "name": "무주초리꽁꽁놀이축제",
    "image": "https://www.welchon.com/upload/seasontheme/course/2025/01/90053493-0895-46ba-8b85-4e95056bdcb4.png",
    "lat": 35.98171091,
    "lng": 127.700533,
    "address": "전북특별자치도 무주군 적상면 초리길 5",
    "province": "전북특별자치도",
    "description": null
  },
  {
    "id": "welchon-178",
    "name": "무주 머루와인동굴",
    "image": "https://www.welchon.com/upload/seasontheme/course/2025/01/1e443ca4-8402-4602-95a8-f6b3b993298b.png",
    "lat": 35.96492186,
    "lng": 127.6975189,
    "address": "전북특별자치도 무주군 적상면 산성로 359",
    "province": "전북특별자치도",
    "description": null
  },
  {
    "id": "welchon-179",
    "name": "전북제사 1970 카페",
    "image": "https://www.welchon.com/upload/seasontheme/course/2025/01/b4c3e092-9853-4839-8542-987ed7cd106d.png",
    "lat": 36.01057449,
    "lng": 127.6878487,
    "address": "전북특별자치도 무주군 무주읍 무설로 104",
    "province": "전북특별자치도",
    "description": null
  },
  {
    "id": "welchon-180",
    "name": "무주 청정다슬기맛집",
    "image": "https://www.welchon.com/upload/seasontheme/course/2025/01/a2dc5bcb-6756-443c-a365-0a4035caab10.png",
    "lat": 35.89800399,
    "lng": 127.7766866,
    "address": "전북특별자치도 무주군 설천면 구천동1로 111",
    "province": "전북특별자치도",
    "description": null
  },
  {
    "id": "welchon-181",
    "name": "소도마을",
    "image": "https://www.welchon.com/upload/seasontheme/course/2025/01/df5c3026-85d2-4e67-87bf-9b49e278feeb.png",
    "lat": 38.08917489,
    "lng": 127.5068951,
    "address": "강원특별자치도 화천군 사내면 수피령로 131-353",
    "province": "강원특별자치도",
    "description": null
  },
  {
    "id": "welchon-182",
    "name": "산천어커피박물관",
    "image": "https://www.welchon.com/upload/seasontheme/course/2025/01/40eb1eeb-bee1-418f-acce-4d6917d40b8c.png",
    "lat": 38.10596896,
    "lng": 127.7037747,
    "address": "강원특별자치도 화천군 화천읍 상승로2길 21",
    "province": "강원특별자치도",
    "description": null
  },
  {
    "id": "welchon-183",
    "name": "화천산천어축제",
    "image": "https://www.welchon.com/upload/seasontheme/course/2025/01/9fb8cf0a-43c6-4d7f-91e5-773fa1e023b5.png",
    "lat": 38.10428659,
    "lng": 127.6982383,
    "address": "강원특별자치도 화천군 화천읍 상승로1길 37-11",
    "province": "강원특별자치도",
    "description": null
  },
  {
    "id": "welchon-184",
    "name": "안덕마을",
    "image": "https://www.welchon.com/upload/seasontheme/course/2025/01/b46fd2fd-b06a-40fc-b3b8-1614a2bcca9a.png",
    "lat": 35.69513207,
    "lng": 127.0997819,
    "address": "전북특별자치도 완주군 구이면 장파길 72",
    "province": "전북특별자치도",
    "description": null
  },
  {
    "id": "welchon-185",
    "name": "초록미소마을",
    "image": "https://www.welchon.com/upload/seasontheme/course/2025/01/49c706a0-0ef6-4eac-afd7-e558a677ae9e.png",
    "lat": 37.00878781,
    "lng": 127.0022462,
    "address": "경기 평택시 오성면 신1리길 44-14",
    "province": "경기",
    "description": null
  },
  {
    "id": "welchon-186",
    "name": "쌍산재",
    "image": "https://www.welchon.com/upload/seasontheme/course/2025/01/af6ed126-b98c-4925-b661-adeb29f674bb.png",
    "lat": 35.21574256,
    "lng": 127.4980312,
    "address": "전남 구례군 마산면 장수길 3-2",
    "province": "전남",
    "description": null
  },
  {
    "id": "welchon-187",
    "name": "덕천마을",
    "image": "https://www.welchon.com/upload/seasontheme/course/2025/01/2f735696-f21d-42b3-bac3-d370b582152a.png",
    "lat": 36.43674646,
    "lng": 129.0261157,
    "address": "경북 청송군 파천면 송소고택길 25-22",
    "province": "경북",
    "description": null
  },
  {
    "id": "welchon-188",
    "name": "척산온천마을",
    "image": "https://www.welchon.com/upload/seasontheme/course/2025/01/db7458ff-cb22-4056-a7a4-76bdef7adc63.png",
    "lat": 38.19020447,
    "lng": 128.5407025,
    "address": "강원특별자치도 속초시 관광로 327 (노학동)",
    "province": "강원특별자치도",
    "description": null
  },
  {
    "id": "welchon-189",
    "name": "금당실전통마을",
    "image": "https://www.welchon.com/upload/seasontheme/course/2025/01/af010890-5c1c-43d7-9ca5-866054d035ae.png",
    "lat": 36.68973808,
    "lng": 128.4115789,
    "address": "경북 예천군 용문면 금당실길 52-4",
    "province": "경북",
    "description": null
  },
  {
    "id": "welchon-190",
    "name": "마이산홍삼족욕카페",
    "image": "https://www.welchon.com/upload/seasontheme/course/2025/01/f659ae29-6f08-4e0f-9e77-2df999933d05.png",
    "lat": 35.77550858,
    "lng": 127.417859,
    "address": "전북특별자치도 진안군 진안읍 마이산로 130",
    "province": "전북특별자치도",
    "description": null
  },
  {
    "id": "welchon-191",
    "name": "예밀촌마을",
    "image": "https://www.welchon.com/upload/seasontheme/course/2025/01/f33ca622-7fa5-4e6f-b96e-b24d22ba784a.png",
    "lat": 37.14253775,
    "lng": 128.5908741,
    "address": "강원특별자치도 영월군 김삿갓면 예밀촌길 237",
    "province": "강원특별자치도",
    "description": null
  },
  {
    "id": "welchon-192",
    "name": "올레오치유농장",
    "image": "https://www.welchon.com/upload/seasontheme/course/2025/01/168506c5-4d44-4479-9102-9621190168ff.png",
    "lat": 35.4277094,
    "lng": 127.0626311,
    "address": "전북특별자치도 순창군 구림면 강천로 854-23",
    "province": "전북특별자치도",
    "description": null
  },
  {
    "id": "welchon-193",
    "name": "킴스마운틴커피",
    "image": "https://www.welchon.com/upload/seasontheme/course/2025/01/51e86919-f574-4dec-9853-84eefee6292c.png",
    "lat": 36.3907697,
    "lng": 129.1392416,
    "address": "경북 청송군 주왕산면 당마을길 7",
    "province": "경북",
    "description": null
  },
  {
    "id": "welchon-194",
    "name": "신정수산",
    "image": "https://www.welchon.com/upload/seasontheme/course/2024/12/f9fb9df5-4c0a-401a-bfde-e53cf28b1f5d.png",
    "lat": 35.9778826,
    "lng": 129.5512413,
    "address": "경북 포항시 남구 구룡포읍 하정로172번길 15",
    "province": "경북",
    "description": null
  },
  {
    "id": "welchon-195",
    "name": "구룡포 일본인 가옥거리",
    "image": "https://www.welchon.com/upload/seasontheme/course/2024/12/24e81aad-1b27-40e5-99b7-3cd815d71c06.png",
    "lat": 35.99062096,
    "lng": 129.560455,
    "address": "경북 포항시 남구 구룡포읍 호미로 277",
    "province": "경북",
    "description": null
  },
  {
    "id": "welchon-196",
    "name": "구룡포 과메기 문화관",
    "image": "https://www.welchon.com/upload/seasontheme/course/2024/12/6275fec6-1706-430d-bfa5-3e0b2a8f0848.png",
    "lat": 35.9927403,
    "lng": 129.5617992,
    "address": "경북 포항시 남구 구룡포읍 구룡포길117번길 28-8",
    "province": "경북",
    "description": null
  },
  {
    "id": "welchon-197",
    "name": "팥거리장터 콩쥐팥쥐",
    "image": "https://www.welchon.com/upload/seasontheme/course/2024/12/2f50a446-8599-4a4f-85d6-6481d0c71cb1.png",
    "lat": 36.26741073,
    "lng": 127.2736122,
    "address": "충남 계룡시 두마면 팥거리2길 12-9",
    "province": "충남",
    "description": null
  },
  {
    "id": "welchon-198",
    "name": "마곡사",
    "image": "https://www.welchon.com/upload/seasontheme/course/2024/12/4e03ffa2-ee6c-4a42-b44d-5af7a4434b73.png",
    "lat": 36.55740597,
    "lng": 127.0116015,
    "address": "충남 공주시 사곡면 마곡사로 966",
    "province": "충남",
    "description": null
  },
  {
    "id": "welchon-199",
    "name": "한국자연사박물관",
    "image": "https://www.welchon.com/upload/seasontheme/course/2024/12/514f9186-24ee-4afb-a239-c979cd29277c.png",
    "lat": 36.3664009,
    "lng": 127.2448238,
    "address": "충남 공주시 반포면 임금봉길 49-25",
    "province": "충남",
    "description": null
  },
  {
    "id": "welchon-200",
    "name": "백두대간협곡열차(V-train) / 분천역",
    "image": "https://www.welchon.com/upload/seasontheme/course/2024/12/f272f70e-bb10-437e-b521-b5ea7e24ea41.png",
    "lat": 36.93259938,
    "lng": 129.0586709,
    "address": "경북 봉화군 소천면 분천길 49",
    "province": "경북",
    "description": null
  },
  {
    "id": "welchon-201",
    "name": "분천 커피방앗간",
    "image": "https://www.welchon.com/upload/seasontheme/course/2024/12/81cff295-13b3-404e-87c9-277909072d41.png",
    "lat": 36.9315399,
    "lng": 129.0572773,
    "address": "경북 봉화군 소천면 분천길 40",
    "province": "경북",
    "description": null
  },
  {
    "id": "welchon-202",
    "name": "철암 탄광역사촌",
    "image": "https://www.welchon.com/upload/seasontheme/course/2024/12/8d6aa7ae-7ded-4024-bfe7-ed087c316cc5.png",
    "lat": 37.11436554,
    "lng": 129.0372165,
    "address": "강원특별자치도 태백시 동태백로 406 (철암동)",
    "province": "강원특별자치도",
    "description": null
  },
  {
    "id": "welchon-203",
    "name": "분천역 산타마을",
    "image": "https://www.welchon.com/upload/seasontheme/course/2024/12/99b09978-a8d4-49c2-b3b4-f57521def139.png",
    "lat": 36.93259938,
    "lng": 129.0586709,
    "address": "경북 봉화군 소천면 분천길 49",
    "province": "경북",
    "description": null
  },
  {
    "id": "welchon-204",
    "name": "산타육칼",
    "image": "https://www.welchon.com/upload/seasontheme/course/2024/12/6199252f-0620-4133-a088-1d981df9f5bc.png",
    "lat": 36.93137088,
    "lng": 129.0586708,
    "address": "경북 봉화군 소천면 분천2길 8-1",
    "province": "경북",
    "description": null
  },
  {
    "id": "welchon-205",
    "name": "카페 핑크문",
    "image": "https://www.welchon.com/upload/seasontheme/course/2024/11/ca368a6e-0058-44de-8941-4abe1c2e4c18.png",
    "lat": 34.71881459,
    "lng": 127.3418832,
    "address": "전남 고흥군 남양면 우주항공로 3685",
    "province": "전남",
    "description": null
  },
  {
    "id": "welchon-206",
    "name": "고흥유자축제",
    "image": "https://www.welchon.com/upload/seasontheme/course/2024/11/9bf66631-5082-4526-8d47-4675b90db5c1.png",
    "lat": 34.5757251,
    "lng": 127.2333003,
    "address": "전남 고흥군 풍양면 양리길 23",
    "province": "전남",
    "description": null
  },
  {
    "id": "welchon-207",
    "name": "선정은하수꼬막마을",
    "image": "https://www.welchon.com/upload/seasontheme/course/2024/11/84b8ce8e-b3e8-430a-b58d-522cd851db7d.png",
    "lat": 34.75721141,
    "lng": 127.3969474,
    "address": "전남 고흥군 남양면 망월로 414-18",
    "province": "전남",
    "description": null
  },
  {
    "id": "welchon-208",
    "name": "장유도예카페",
    "image": "https://www.welchon.com/upload/seasontheme/course/2024/11/a30cc414-ce52-4a66-8aba-41dc4bff681d.png",
    "lat": 35.18292006,
    "lng": 128.7699489,
    "address": "경남 김해시 대청계곡길 195-79 (대청동)",
    "province": "경남",
    "description": null
  },
  {
    "id": "welchon-209",
    "name": "무척산 한옥마을",
    "image": "https://www.welchon.com/upload/seasontheme/course/2024/11/48f772a2-f8ef-46d4-a8a5-cc334abc542c.png",
    "lat": 35.38066887,
    "lng": 128.8416909,
    "address": "경남 김해시 생림면 안양로358번길 38",
    "province": "경남",
    "description": null
  },
  {
    "id": "welchon-210",
    "name": "김해분청도자기 축제",
    "image": "https://www.welchon.com/upload/seasontheme/course/2024/11/28434d52-019e-45a3-8016-245e22d93aac.png",
    "lat": 35.25149575,
    "lng": 128.7458506,
    "address": "경남 김해시 진례면 분청로 17",
    "province": "경남",
    "description": null
  },
  {
    "id": "welchon-211",
    "name": "팔팔식당",
    "image": "https://www.welchon.com/upload/seasontheme/course/2024/11/b4782129-ac59-44d0-b31f-087601ff0efd.png",
    "lat": 36.50627531,
    "lng": 129.1202134,
    "address": "경북 청송군 진보면 경동로 5157",
    "province": "경북",
    "description": null
  },
  {
    "id": "welchon-212",
    "name": "청송송소고택",
    "image": "https://www.welchon.com/upload/seasontheme/course/2024/11/3b1cac0a-dc2d-4172-9dd8-fa9a932159ab.png",
    "lat": 36.43617486,
    "lng": 129.0265139,
    "address": "경북 청송군 파천면 송소고택길 15-2",
    "province": "경북",
    "description": null
  },
  {
    "id": "welchon-213",
    "name": "제18회 청송사과축제",
    "image": "https://www.welchon.com/upload/seasontheme/course/2024/11/0497343a-1df4-4704-bc46-f95d8d172c93.png",
    "lat": 36.42799455,
    "lng": 129.0576056,
    "address": "경북 청송군 청송읍 금곡1길 28",
    "province": "경북",
    "description": null
  },
  {
    "id": "welchon-214",
    "name": "2024 괴산 김장 축제",
    "image": "https://www.welchon.com/upload/seasontheme/course/2024/11/f747351f-c0b5-41de-9424-9233ca8de2d9.png",
    "lat": 36.8134802,
    "lng": 127.7882013,
    "address": "충북 괴산군 괴산읍 임꺽정로 75-1",
    "province": "충북",
    "description": null
  },
  {
    "id": "welchon-215",
    "name": "문광저수지",
    "image": "https://www.welchon.com/upload/seasontheme/course/2024/11/9224027a-b881-43ab-b083-2ddca9fb84fb.png",
    "lat": 36.77469628,
    "lng": 127.7425212,
    "address": "충북 괴산군 문광면 괴산로양곡5길 124-1",
    "province": "충북",
    "description": null
  },
  {
    "id": "welchon-216",
    "name": "민속보쌈족발",
    "image": "https://www.welchon.com/upload/seasontheme/course/2024/11/fd3d2771-f38c-4f7e-b597-3c75f34c2adb.png",
    "lat": 36.80916961,
    "lng": 127.7935632,
    "address": "충북 괴산군 괴산읍 읍내로10길 15",
    "province": "충북",
    "description": null
  },
  {
    "id": "welchon-217",
    "name": "보은대추닭강정",
    "image": "https://www.welchon.com/upload/seasontheme/course/2024/10/486d8f77-aec7-4b41-9a9a-3d3ad0c05e97.png",
    "lat": 36.48291942,
    "lng": 127.7175754,
    "address": "충북 보은군 보은읍 삼산로5길 3",
    "province": "충북",
    "description": null
  },
  {
    "id": "welchon-218",
    "name": "보은대추 축제",
    "image": "https://www.welchon.com/upload/seasontheme/course/2024/10/5b2544ed-9be1-46e4-9d55-1c6214879ff0.png",
    "lat": 36.48660975,
    "lng": 127.7248689,
    "address": "충북 보은군 보은읍 뱃들로 47",
    "province": "충북",
    "description": null
  },
  {
    "id": "welchon-219",
    "name": "속리산 숲체험 휴양마을",
    "image": "https://www.welchon.com/upload/seasontheme/course/2024/10/f6c8e3a8-3569-46ad-a487-b0cf114fd893.png",
    "lat": 36.49245548,
    "lng": 127.7924742,
    "address": "충북 보은군 속리산면 속리산로 596",
    "province": "충북",
    "description": null
  },
  {
    "id": "welchon-220",
    "name": "진도 이충무공 동상 스카이워크, 판옥선",
    "image": "https://www.welchon.com/upload/seasontheme/course/2024/10/e08bc715-a821-44a4-b8d6-4f5b39a4e851.png",
    "lat": 34.56966935,
    "lng": 126.3007037,
    "address": "전남 진도군 군내면 진도대로 8475",
    "province": "전남",
    "description": null
  },
  {
    "id": "welchon-221",
    "name": "제16회 명량대첩 축제",
    "image": "https://www.welchon.com/upload/seasontheme/course/2024/10/8b92128a-471f-4e4a-8c2b-e55ad73f377f.png",
    "lat": 34.56942157,
    "lng": 126.3034818,
    "address": "전남 진도군 군내면 명량대첩로 7",
    "province": "전남",
    "description": null
  },
  {
    "id": "welchon-222",
    "name": "식당 나루터",
    "image": "https://www.welchon.com/upload/seasontheme/course/2024/10/7add9a5a-3faa-4fac-890a-98b273084183.png",
    "lat": 34.57022204,
    "lng": 126.2997326,
    "address": "전남 진도군 군내면 진도대로 8463",
    "province": "전남",
    "description": null
  },
  {
    "id": "welchon-223",
    "name": "해남 우수영 문화마을",
    "image": "https://www.welchon.com/upload/seasontheme/course/2024/10/9d558b74-4e33-47df-997e-21976fd8e55e.png",
    "lat": 34.58842174,
    "lng": 126.311487,
    "address": "전남 해남군 문내면 우수영안길 96",
    "province": "전남",
    "description": null
  },
  {
    "id": "welchon-224",
    "name": "임실N치즈축제",
    "image": "https://www.welchon.com/upload/seasontheme/course/2024/10/7a8ba961-94b2-4b99-b451-04cb53c49132.png",
    "lat": 35.63312572,
    "lng": 127.3012249,
    "address": "전북특별자치도 임실군 성수면 도인2길 50",
    "province": "전북특별자치도",
    "description": null
  },
  {
    "id": "welchon-225",
    "name": "카페 우유일기",
    "image": "https://www.welchon.com/upload/seasontheme/course/2024/10/798da82f-df21-4d3f-966e-ecee8cf7ee7a.png",
    "lat": 35.64120142,
    "lng": 127.302514,
    "address": "전북특별자치도 임실군 임실읍 치즈마을2길 38",
    "province": "전북특별자치도",
    "description": null
  },
  {
    "id": "welchon-226",
    "name": "성가리마을",
    "image": "https://www.welchon.com/upload/seasontheme/course/2024/10/d3001415-1caf-4955-94a3-a78d4d4425d0.png",
    "lat": 35.61350063,
    "lng": 127.2792772,
    "address": "전북특별자치도 임실군 임실읍 봉황로 144",
    "province": "전북특별자치도",
    "description": null
  },
  {
    "id": "welchon-227",
    "name": "치즈밸리참나무집",
    "image": "https://www.welchon.com/upload/seasontheme/course/2024/10/ba2f6bd1-6cce-43c4-a27a-8cd0825fbded.png",
    "lat": 35.63170251,
    "lng": 127.3031264,
    "address": "전북특별자치도 임실군 성수면 도인2길 36",
    "province": "전북특별자치도",
    "description": null
  },
  {
    "id": "welchon-228",
    "name": "봉화닭실마을",
    "image": "https://www.welchon.com/upload/seasontheme/course/2024/10/1e85f99b-d58c-4cb3-a322-3895aa20647a.png",
    "lat": 36.90548863,
    "lng": 128.7425676,
    "address": "경북 봉화군 봉화읍 충재길 60",
    "province": "경북",
    "description": null
  },
  {
    "id": "welchon-229",
    "name": "솔봉이 식당",
    "image": "https://www.welchon.com/upload/seasontheme/course/2024/10/bf2ae162-eaba-4af7-9571-e9967824938d.png",
    "lat": 36.89000461,
    "lng": 128.7390845,
    "address": "경북 봉화군 봉화읍 내성천1길 76-1",
    "province": "경북",
    "description": null
  },
  {
    "id": "welchon-230",
    "name": "봉화송이축제",
    "image": "https://www.welchon.com/upload/seasontheme/course/2024/10/9e345de3-1a9e-4f6f-822f-a10f713e5e68.png",
    "lat": 36.8876394,
    "lng": 128.7393208,
    "address": "경북 봉화군 봉화읍 내성로3길 9 / 봉화읍 체육공원, 송이산 일원",
    "province": "경북",
    "description": null
  },
  {
    "id": "welchon-231",
    "name": "소도둑놈 산촌 생태 마을",
    "image": "https://www.welchon.com/upload/seasontheme/course/2024/09/5dee111a-b0e5-4e45-9bb5-2a71f4d04d0f.png",
    "lat": 37.64387161,
    "lng": 128.5378831,
    "address": "강원특별자치도 평창군 진부면 경강로 3346-9",
    "province": "강원특별자치도",
    "description": null
  },
  {
    "id": "welchon-232",
    "name": "평창 88 송어횟집",
    "image": "https://www.welchon.com/upload/seasontheme/course/2024/09/5b3f6a6f-02e3-402a-84bc-d217c09edd86.png",
    "lat": 37.33890244,
    "lng": 128.5031528,
    "address": "강원특별자치도 평창군 미탄면 서동로 3713-8",
    "province": "강원특별자치도",
    "description": null
  },
  {
    "id": "welchon-233",
    "name": "그리심 카페",
    "image": "https://www.welchon.com/upload/seasontheme/course/2024/09/774a1580-df15-447b-9031-acbe70c186ae.png",
    "lat": 37.36262602,
    "lng": 128.3856955,
    "address": "강원특별자치도 평창군 평창읍 제방길 33-6",
    "province": "강원특별자치도",
    "description": null
  },
  {
    "id": "welchon-234",
    "name": "2024 평창 백일홍 축제",
    "image": "https://www.welchon.com/upload/seasontheme/course/2024/09/4d8f1ab3-70b3-4ea7-8378-1de42442b8bb.png",
    "lat": 37.36023066,
    "lng": 128.3828388,
    "address": "강원특별자치도 평창군 평창읍 제방길 89",
    "province": "강원특별자치도",
    "description": null
  },
  {
    "id": "welchon-235",
    "name": "논개 생가 식당",
    "image": "https://www.welchon.com/upload/seasontheme/course/2024/09/6787b0a1-7164-4408-9d98-10f96a40fd77.png",
    "lat": 35.67922042,
    "lng": 127.6212314,
    "address": "전북특별자치도 장수군 장계면 의암로 558",
    "province": "전북특별자치도",
    "description": null
  },
  {
    "id": "welchon-236",
    "name": "의암 주논개 생가지",
    "image": "https://www.welchon.com/upload/seasontheme/course/2024/09/7778a38b-0c04-4ebc-afc0-dd4007f0bd0a.png",
    "lat": 35.67922042,
    "lng": 127.6212314,
    "address": "전북특별자치도 장수군 장계면 의암로 558",
    "province": "전북특별자치도",
    "description": null
  },
  {
    "id": "welchon-237",
    "name": "장수 도깨비 전시관",
    "image": "https://www.welchon.com/upload/seasontheme/course/2024/09/b60a74f7-13e1-455c-9a87-40064be87c50.png",
    "lat": 35.67771617,
    "lng": 127.6218841,
    "address": "전북특별자치도 장수군 장계면 논개생가길 31-13",
    "province": "전북특별자치도",
    "description": null
  },
  {
    "id": "welchon-238",
    "name": "장수 한우랑 사과랑 축제",
    "image": "https://www.welchon.com/upload/seasontheme/course/2024/09/531a9b24-aae1-4cd2-a099-1887b2f19c04.png",
    "lat": 35.641078,
    "lng": 127.5232574,
    "address": "전북특별자치도 장수군 장수읍 논개사당길 65",
    "province": "전북특별자치도",
    "description": null
  },
  {
    "id": "welchon-239",
    "name": "2024 괴산고추축제",
    "image": "https://www.welchon.com/upload/seasontheme/course/2024/09/8292ae80-ee73-449c-a654-96745f1a8172.png",
    "lat": 36.81491827,
    "lng": 127.7855566,
    "address": "충북 괴산군 괴산읍 임꺽정로 104",
    "province": "충북",
    "description": null
  },
  {
    "id": "welchon-240",
    "name": "청이랑콩이랑",
    "image": "https://www.welchon.com/upload/seasontheme/course/2024/09/7472adc1-6754-41df-b864-db16f5e825dc.png",
    "lat": 36.80908062,
    "lng": 127.7911901,
    "address": "충북 괴산군 괴산읍 읍내로6길 27",
    "province": "충북",
    "description": null
  },
  {
    "id": "welchon-241",
    "name": "해듬카페",
    "image": "https://www.welchon.com/upload/seasontheme/course/2024/09/bad670f9-2437-4142-af11-beb96ca013e3.png",
    "lat": 36.77263219,
    "lng": 127.6473692,
    "address": "충북 괴산군 청안면 청안읍내로1길 81-13",
    "province": "충북",
    "description": null
  },
  {
    "id": "welchon-242",
    "name": "서천 해물칼국수",
    "image": "https://www.welchon.com/upload/seasontheme/course/2024/08/342d5119-0b6b-49ef-a08d-1252382684c8.png",
    "lat": 36.07630642,
    "lng": 126.6843168,
    "address": "충남 서천군 서천읍 충절로 11",
    "province": "충남",
    "description": null
  },
  {
    "id": "welchon-243",
    "name": "장항 맥문동 꽃 축제",
    "image": "https://www.welchon.com/upload/seasontheme/course/2024/08/6377941d-a782-40bd-abca-35815f3ad333.png",
    "lat": 36.01843929,
    "lng": 126.6655625,
    "address": "충남 서천군 장항읍 장항산단로34번길 122-16",
    "province": "충남",
    "description": null
  },
  {
    "id": "welchon-244",
    "name": "판교 시간이 멈춘 마을",
    "image": "https://www.welchon.com/upload/seasontheme/course/2024/08/e361ecf5-999a-40ca-bfc9-139e5cdbc113.png",
    "lat": 36.15780507,
    "lng": 126.6890963,
    "address": "충남 서천군 판교면 종판로901번길 45",
    "province": "충남",
    "description": null
  },
  {
    "id": "welchon-245",
    "name": "장항 스카이워크 전망대",
    "image": "https://www.welchon.com/upload/seasontheme/course/2024/08/0914245b-5ac4-4a86-bce6-03a8d7f1a4a1.png",
    "lat": 36.01843929,
    "lng": 126.6655625,
    "address": "충남 서천군 장항읍 장항산단로34번길 122-16",
    "province": "충남",
    "description": null
  },
  {
    "id": "welchon-246",
    "name": "예천한우식육식당",
    "image": "https://www.welchon.com/upload/seasontheme/course/2024/08/8b2a8634-63db-4e6d-aa5b-fc0814b30c8d.png",
    "lat": 36.65141706,
    "lng": 128.4539356,
    "address": "경북 예천군 예천읍 충효로 273",
    "province": "경북",
    "description": null
  },
  {
    "id": "welchon-247",
    "name": "예천 곤충생태원(2024 예천곤충축제)",
    "image": "https://www.welchon.com/upload/seasontheme/course/2024/08/2e5bb335-69d5-406f-8075-cc8b3643ca47.png",
    "lat": 36.82510164,
    "lng": 128.4619768,
    "address": "경북 예천군 효자면 은풍로 1076-38",
    "province": "경북",
    "description": null
  },
  {
    "id": "welchon-248",
    "name": "한천체육공원(2024 예천곤충축제)",
    "image": "https://www.welchon.com/upload/seasontheme/course/2024/08/aabacd49-39d2-4e01-a683-578674a01d9e.png",
    "lat": 36.65576351,
    "lng": 128.4515533,
    "address": "경북 예천군 예천읍 효자로 68",
    "province": "경북",
    "description": null
  },
  {
    "id": "welchon-249",
    "name": "금당실전통마을",
    "image": "https://www.welchon.com/upload/seasontheme/course/2024/08/33cc020b-2217-42bc-a988-d3bcc2ca8d9b.png",
    "lat": 36.69348163,
    "lng": 128.4102977,
    "address": "경북 예천군 용문면 금당실길 118-32",
    "province": "경북",
    "description": null
  },
  {
    "id": "welchon-250",
    "name": "덕고 정보화마을",
    "image": "https://www.welchon.com/upload/seasontheme/course/2024/08/ac71ebc8-2e93-4b13-88d3-84ef670039a5.png",
    "lat": 37.47349064,
    "lng": 128.0208525,
    "address": "강원특별자치도 횡성군 횡성읍 덕고로 410",
    "province": "강원특별자치도",
    "description": null
  },
  {
    "id": "welchon-251",
    "name": "둔내 고랭지 토마토 축제",
    "image": "https://www.welchon.com/upload/seasontheme/course/2024/08/29be3655-a020-44b8-940b-909ee0d89e4c.png",
    "lat": 37.51671968,
    "lng": 128.2137117,
    "address": "강원특별자치도 횡성군 둔내면 경강로 4708",
    "province": "강원특별자치도",
    "description": null
  },
  {
    "id": "welchon-252",
    "name": "구문소마을",
    "image": "https://www.welchon.com/upload/seasontheme/course/2024/08/64787c53-09d1-4fe9-b3ab-d8e19b5aa5d4.png",
    "lat": 37.09324559,
    "lng": 129.0379765,
    "address": "강원특별자치도 태백시 사군드리길 7 (동점동)",
    "province": "강원특별자치도",
    "description": null
  },
  {
    "id": "welchon-253",
    "name": "태백 해바라기 축제",
    "image": "https://www.welchon.com/upload/seasontheme/course/2024/08/be3d3bee-c4c0-4a85-af07-3dc2fee85bc5.png",
    "lat": 37.20692099,
    "lng": 128.9896998,
    "address": "강원특별자치도 태백시 구와우길 38-20 (황지동)",
    "province": "강원특별자치도",
    "description": null
  },
  {
    "id": "welchon-254",
    "name": "태백석탄박물관",
    "image": "https://www.welchon.com/upload/seasontheme/course/2024/08/9b7bc785-3d70-406c-815d-17d96b75ed7c.png",
    "lat": 37.11723203,
    "lng": 128.950564,
    "address": "강원특별자치도 태백시 천제단길 195 (소도동)",
    "province": "강원특별자치도",
    "description": null
  },
  {
    "id": "welchon-255",
    "name": "장흥 물축제",
    "image": "https://www.welchon.com/upload/seasontheme/course/2024/08/24f90f80-73f3-4ebb-8648-0a9a3396722d.png",
    "lat": 34.66960327,
    "lng": 126.9336691,
    "address": "전남 장흥군 장흥읍 우드랜드길 180",
    "province": "전남",
    "description": null
  },
  {
    "id": "welchon-256",
    "name": "정남진 장흥 토요시장",
    "image": "https://www.welchon.com/upload/seasontheme/course/2024/08/f6db2138-59ee-4703-9e58-9868462d00df.png",
    "lat": 34.67697917,
    "lng": 126.9029058,
    "address": "전남 장흥군 장흥읍 토요시장1길 53",
    "province": "전남",
    "description": null
  },
  {
    "id": "welchon-257",
    "name": "정남진 편백숲 우드랜드",
    "image": "https://www.welchon.com/upload/seasontheme/course/2024/08/e88e1091-391f-4fc6-aa2e-30df8d5d2f23.png",
    "lat": 34.66960327,
    "lng": 126.9336691,
    "address": "전남 장흥군 장흥읍 우드랜드길 180",
    "province": "전남",
    "description": null
  },
  {
    "id": "welchon-258",
    "name": "장수풍뎅이마을",
    "image": "https://www.welchon.com/upload/seasontheme/course/2024/08/16232c3e-1281-4a75-9137-5958926b23a7.png",
    "lat": 34.80028002,
    "lng": 126.8326018,
    "address": "전남 장흥군 유치면 반월길 11",
    "province": "전남",
    "description": null
  },
  {
    "id": "welchon-259",
    "name": "우천 바리안 마을",
    "image": "https://www.welchon.com/upload/seasontheme/course/2024/07/0542d63b-4ab9-4dc4-9eb0-ca11743ad48f.png",
    "lat": 35.03444746,
    "lng": 128.1175952,
    "address": "경남 사천시 사남면 사남로 587",
    "province": "경남",
    "description": null
  },
  {
    "id": "welchon-260",
    "name": "사천 케이블카 자연휴양림",
    "image": "https://www.welchon.com/upload/seasontheme/course/2024/07/d5ba309f-60a6-4979-8fdc-c3bee76cfd9b.png",
    "lat": 34.95016897,
    "lng": 128.0576107,
    "address": "경남 사천시 실안길 242-45 (실안동)",
    "province": "경남",
    "description": null
  },
  {
    "id": "welchon-261",
    "name": "별주부전테마파크",
    "image": "https://www.welchon.com/upload/seasontheme/course/2024/07/819cc092-d8a5-49f6-906c-2b38c1fa34a3.png",
    "lat": 34.96805554,
    "lng": 127.9820772,
    "address": "경남 사천시 서포면 용궁로 132",
    "province": "경남",
    "description": null
  },
  {
    "id": "welchon-262",
    "name": "남일대해수욕장",
    "image": "https://www.welchon.com/upload/seasontheme/course/2024/07/0dc77d7a-de21-4d7c-a20c-badd5d22e2b2.png",
    "lat": 34.92795521,
    "lng": 128.0980257,
    "address": "경남 사천시 모례2길 11-19 (향촌동)",
    "province": "경남",
    "description": null
  },
  {
    "id": "welchon-263",
    "name": "양촌 여울 체험마을",
    "image": "https://www.welchon.com/upload/seasontheme/course/2024/07/ccafea2b-f274-4864-baf9-ea243b04e76c.png",
    "lat": 35.13650766,
    "lng": 128.3752829,
    "address": "경남 창원시 마산합포구 진전면 의산삼일로 60",
    "province": "경남",
    "description": null
  },
  {
    "id": "welchon-264",
    "name": "로봇랜드",
    "image": "https://www.welchon.com/upload/seasontheme/course/2024/07/983b2370-ba45-4c95-97fc-2c7a4a9e6b99.png",
    "lat": 35.07685147,
    "lng": 128.5870543,
    "address": "경남 창원시 마산합포구 구산면 로봇랜드로 250",
    "province": "경남",
    "description": null
  },
  {
    "id": "welchon-265",
    "name": "해양드라마 세트장",
    "image": "https://www.welchon.com/upload/seasontheme/course/2024/07/ad04b140-c4ef-45d7-9444-91fdadff56f7.png",
    "lat": 35.10921787,
    "lng": 128.5614696,
    "address": "경남 창원시 마산합포구 구산면 석곡로 252-106",
    "province": "경남",
    "description": null
  },
  {
    "id": "welchon-266",
    "name": "한우 산애 천하장사 체험 마을 캠핑장",
    "image": "https://www.welchon.com/upload/seasontheme/course/2024/07/2647e158-d039-42a4-8dad-b2a329e40300.png",
    "lat": 35.3816774,
    "lng": 128.1758835,
    "address": "경남 의령군 대의면 모의로 662-24",
    "province": "경남",
    "description": null
  },
  {
    "id": "welchon-267",
    "name": "의령 전통시장",
    "image": "https://www.welchon.com/upload/seasontheme/course/2024/07/ba2590df-8861-4afb-896d-21040432e916.png",
    "lat": 35.31981758,
    "lng": 128.2598193,
    "address": "경남 의령군 의령읍 의병로17길 3-1",
    "province": "경남",
    "description": null
  },
  {
    "id": "welchon-268",
    "name": "아열대 식물원",
    "image": "https://www.welchon.com/upload/seasontheme/course/2024/07/9c6211b1-253e-4ad1-9cc0-b4ec99a70cea.png",
    "lat": 35.32391298,
    "lng": 128.2807424,
    "address": "경남 의령군 의령읍 백산로 160-1",
    "province": "경남",
    "description": null
  },
  {
    "id": "welchon-269",
    "name": "창평 전통시장",
    "image": "https://www.welchon.com/upload/seasontheme/course/2024/07/30397464-668a-4d06-8a11-f62905f8a16c.png",
    "lat": 35.23815063,
    "lng": 127.0147646,
    "address": "전남 담양군 창평면 사동길 14-24",
    "province": "전남",
    "description": null
  },
  {
    "id": "welchon-270",
    "name": "달빛무월마을",
    "image": "https://www.welchon.com/upload/seasontheme/course/2024/07/8231a9b4-8187-4571-9320-dad749bb521b.png",
    "lat": 35.26627003,
    "lng": 127.0392784,
    "address": "전남 담양군 대덕면 무월길 2",
    "province": "전남",
    "description": null
  },
  {
    "id": "welchon-271",
    "name": "한국 대나무 박물관",
    "image": "https://www.welchon.com/upload/seasontheme/course/2024/07/a577217f-6882-41dd-9e6e-df0507024f1c.png",
    "lat": 35.30934367,
    "lng": 126.9764088,
    "address": "전남 담양군 담양읍 죽향문화로 35",
    "province": "전남",
    "description": null
  },
  {
    "id": "welchon-272",
    "name": "가남 체험 휴양마을(허브 빌리지)",
    "image": "https://www.welchon.com/upload/seasontheme/course/2024/07/f3ba79e0-5cdb-48cb-99b7-109de8dfc007.png",
    "lat": 35.6882879,
    "lng": 128.0221595,
    "address": "경남 거창군 가조면 지산로 1242",
    "province": "경남",
    "description": null
  },
  {
    "id": "welchon-273",
    "name": "거창 창포원",
    "image": "https://www.welchon.com/upload/seasontheme/course/2024/07/70b5ebd3-ae85-41ca-99f6-6ebd85d8e00d.png",
    "lat": 35.65495682,
    "lng": 127.939573,
    "address": "경남 거창군 남상면 창포원길 21-1",
    "province": "경남",
    "description": null
  },
  {
    "id": "welchon-274",
    "name": "거창 항노화 힐링랜드",
    "image": "https://www.welchon.com/upload/seasontheme/course/2024/07/bbc089fc-18a8-4610-8315-2724fb9eac2a.png",
    "lat": 35.73647902,
    "lng": 128.0410929,
    "address": "경남 거창군 가조면 의상봉길 832",
    "province": "경남",
    "description": null
  },
  {
    "id": "welchon-275",
    "name": "중앙체육공원",
    "image": "https://www.welchon.com/upload/seasontheme/course/2024/06/82830ef0-3d33-43f8-83bf-9908d084830d.png",
    "lat": 35.9497313,
    "lng": 126.9861273,
    "address": "전북특별자치도 익산시 하나로 322 (어양동)",
    "province": "전북특별자치도",
    "description": null
  },
  {
    "id": "welchon-276",
    "name": "용안 생태습지공원",
    "image": "https://www.welchon.com/upload/seasontheme/course/2024/06/f37a5b57-e381-43d4-b5dd-40b35d63d51c.png",
    "lat": 36.11964949,
    "lng": 126.9524295,
    "address": "전북특별자치도 익산시 용안면 용안교동1길 21",
    "province": "전북특별자치도",
    "description": null
  },
  {
    "id": "welchon-277",
    "name": "다송 무지개 매화마을",
    "image": "https://www.welchon.com/upload/seasontheme/course/2024/06/f8dfa875-cce3-4011-9796-6544149cb4ab.png",
    "lat": 36.03767069,
    "lng": 126.9565559,
    "address": "전북특별자치도 익산시 함열읍 익산대로 1324-21",
    "province": "전북특별자치도",
    "description": null
  },
  {
    "id": "welchon-278",
    "name": "카페 그르르",
    "image": "https://www.welchon.com/upload/seasontheme/course/2024/06/cfdd8aa8-830e-4d19-9e09-8c36ecffdc1b.png",
    "lat": 35.97149373,
    "lng": 127.0253781,
    "address": "전북특별자치도 익산시 무왕로 1543 (석왕동)",
    "province": "전북특별자치도",
    "description": null
  },
  {
    "id": "welchon-279",
    "name": "무안황토 갯벌 랜드",
    "image": "https://www.welchon.com/upload/seasontheme/course/2024/06/b5d9c70f-df08-4889-896a-6d71fb2e0b77.png",
    "lat": 35.09590598,
    "lng": 126.3297013,
    "address": "전남 무안군 해제면 만송로 34",
    "province": "전남",
    "description": null
  },
  {
    "id": "welchon-280",
    "name": "밀리터리 테마파크",
    "image": "https://www.welchon.com/upload/seasontheme/course/2024/06/393267e3-4bce-4b9c-a3dd-099aa7171860.png",
    "lat": 35.99772888,
    "lng": 127.6548689,
    "address": "전북특별자치도 무주군 무주읍 우명길 21",
    "province": "전북특별자치도",
    "description": null
  },
  {
    "id": "welchon-281",
    "name": "두암 식당",
    "image": "https://www.welchon.com/upload/seasontheme/course/2024/06/d139a747-9bf1-4363-ade2-58944865d19d.png",
    "lat": 34.965458,
    "lng": 126.5189457,
    "address": "전남 무안군 몽탄면 우명길 52",
    "province": "전남",
    "description": null
  },
  {
    "id": "welchon-282",
    "name": "웰선 체험 치유마을",
    "image": "https://www.welchon.com/upload/seasontheme/course/2024/06/2d5ba770-626c-49f9-bb3c-c7c17ebe441c.png",
    "lat": 34.89200096,
    "lng": 126.4563092,
    "address": "전남 무안군 청계면 예술촌길 148",
    "province": "전남",
    "description": null
  },
  {
    "id": "welchon-283",
    "name": "모래시계 공원",
    "image": "https://www.welchon.com/upload/seasontheme/course/2024/06/a1b68720-bc90-4483-83c0-a43f85f7ee4a.png",
    "lat": 37.6872532,
    "lng": 129.0376643,
    "address": "강원특별자치도 강릉시 강동면 헌화로 990",
    "province": "강원특별자치도",
    "description": null
  },
  {
    "id": "welchon-284",
    "name": "송담 서원",
    "image": "https://www.welchon.com/upload/seasontheme/course/2024/06/9b832ec2-fc50-4f43-abba-4dcfcaa96d2c.png",
    "lat": 37.69295824,
    "lng": 128.9291863,
    "address": "강원특별자치도 강릉시 강동면 송담서원길 27-7",
    "province": "강원특별자치도",
    "description": null
  },
  {
    "id": "welchon-285",
    "name": "정감이마을",
    "image": "https://www.welchon.com/upload/seasontheme/course/2024/06/285350fb-3474-41b7-8298-3d3b0aaa7b74.png",
    "lat": 37.71684585,
    "lng": 128.9559449,
    "address": "강원특별자치도 강릉시 강동면 둔지길 81",
    "province": "강원특별자치도",
    "description": null
  },
  {
    "id": "welchon-286",
    "name": "정동 심곡 바다부채길",
    "image": "https://www.welchon.com/upload/seasontheme/course/2024/06/37afc0e7-44b5-4325-8fc1-58bc23990eae.png",
    "lat": 37.68406187,
    "lng": 129.0419045,
    "address": "강원특별자치도 강릉시 강동면 헌화로 950-39",
    "province": "강원특별자치도",
    "description": null
  },
  {
    "id": "welchon-287",
    "name": "혼불 문학관, 혼불문학마을",
    "image": "https://www.welchon.com/upload/seasontheme/course/2024/06/147b830e-dd62-416d-8239-515cda6a8c95.png",
    "lat": 35.48109815,
    "lng": 127.3200256,
    "address": "전북특별자치도 남원시 사매면 노봉안길 52",
    "province": "전북특별자치도",
    "description": null
  },
  {
    "id": "welchon-288",
    "name": "광한루원 , 신관사또부임행차",
    "image": "https://www.welchon.com/upload/seasontheme/course/2024/06/2804316f-188d-4d3c-87b7-5ff2cc3a7b44.png",
    "lat": 35.40413183,
    "lng": 127.3805035,
    "address": "전북특별자치도 남원시 요천로 1447 (천거동)",
    "province": "전북특별자치도",
    "description": null
  },
  {
    "id": "welchon-289",
    "name": "춘향테마파크",
    "image": "https://www.welchon.com/upload/seasontheme/course/2024/06/081df0d4-20ba-471b-8bd9-2630b8a0e892.png",
    "lat": 35.40248086,
    "lng": 127.3861367,
    "address": "전북특별자치도 남원시 양림길 12 (어현동)",
    "province": "전북특별자치도",
    "description": null
  },
  {
    "id": "welchon-290",
    "name": "남원요천 벚꽃길",
    "image": "https://www.welchon.com/upload/seasontheme/course/2024/06/5afd5550-7dff-447c-8729-a83a54d52247.png",
    "lat": 35.39955186,
    "lng": 127.3803379,
    "address": "전북특별자치도 남원시 소리길 10 (노암동)",
    "province": "전북특별자치도",
    "description": null
  },
  {
    "id": "welchon-291",
    "name": "광한루원 야경,  월매집 국악공연",
    "image": "https://www.welchon.com/upload/seasontheme/course/2024/06/efb99a05-c4b4-40b1-aa27-e6f7ae793708.png",
    "lat": 35.40413183,
    "lng": 127.3805035,
    "address": "전북특별자치도 남원시 요천로 1447 (천거동)",
    "province": "전북특별자치도",
    "description": null
  },
  {
    "id": "welchon-292",
    "name": "구 서도역 영상촬영장",
    "image": "https://www.welchon.com/upload/seasontheme/course/2024/06/1a910506-978f-4040-a7c5-e416cfbbb692.png",
    "lat": 35.48981921,
    "lng": 127.330616,
    "address": "전북특별자치도 남원시 사매면 서도길 32",
    "province": "전북특별자치도",
    "description": null
  },
  {
    "id": "welchon-293",
    "name": "월광 포차",
    "image": "https://www.welchon.com/upload/seasontheme/course/2024/06/2402056b-f73c-4be1-83e6-bb59850c49ae.png",
    "lat": 35.40297998,
    "lng": 127.3778225,
    "address": "전북특별자치도 남원시 광한서로 21 (금동)",
    "province": "전북특별자치도",
    "description": null
  },
  {
    "id": "welchon-294",
    "name": "김녕금속공예벽화마을",
    "image": "https://www.welchon.com/upload/seasontheme/course/2024/05/787e0b52-67d9-45c1-a550-57db43dc2cfa.png",
    "lat": 33.55793081,
    "lng": 126.7465076,
    "address": "제주특별자치도 제주시 구좌읍 김녕항3길 18-16",
    "province": "제주특별자치도",
    "description": null
  },
  {
    "id": "welchon-295",
    "name": "월정리 해수욕장",
    "image": "https://www.welchon.com/upload/seasontheme/course/2024/05/50da33a1-d9a3-4221-9491-30073973337a.png",
    "lat": 33.55462335,
    "lng": 126.7983763,
    "address": "제주특별자치도 제주시 구좌읍 해맞이해안로 480-1",
    "province": "제주특별자치도",
    "description": null
  },
  {
    "id": "welchon-296",
    "name": "큰엉해안경승지",
    "image": "https://www.welchon.com/upload/seasontheme/course/2024/05/72576fca-a81d-487d-8340-0c553da1c2f4.png",
    "lat": 33.27334981,
    "lng": 126.7037119,
    "address": "제주특별자치도 서귀포시 남원읍 태위로 522-17",
    "province": "제주특별자치도",
    "description": null
  },
  {
    "id": "welchon-297",
    "name": "우도",
    "image": "https://www.welchon.com/upload/seasontheme/course/2024/05/901bad7c-3631-4785-a8b5-cbb9dc67a45d.png",
    "lat": 33.51482083,
    "lng": 126.9687619,
    "address": "제주특별자치도 제주시 우도면 안비양길 47-3",
    "province": "제주특별자치도",
    "description": null
  },
  {
    "id": "welchon-298",
    "name": "태화강국가정원",
    "image": "https://www.welchon.com/upload/seasontheme/course/2024/05/faa851ad-ea72-4628-9e98-57d06c20725b.png",
    "lat": 35.55515004,
    "lng": 129.2761552,
    "address": "울산 중구 태화강국가정원길 1 (태화동)",
    "province": "울산",
    "description": null
  },
  {
    "id": "welchon-299",
    "name": "복순도가와 카페 농도",
    "image": "https://www.welchon.com/upload/seasontheme/course/2024/05/e64a4e4c-4650-4755-87e0-e6c3e3f9041e.png",
    "lat": 35.58578161,
    "lng": 129.096948,
    "address": "울산 울주군 상북면 향산동길 48",
    "province": "울산",
    "description": null
  },
  {
    "id": "welchon-300",
    "name": "자수정동굴나라",
    "image": "https://www.welchon.com/upload/seasontheme/course/2024/05/bb472dab-c13a-4f59-b6b6-033ac753b123.png",
    "lat": 35.54711993,
    "lng": 129.0928046,
    "address": "울산 울주군 상북면 자수정로 212",
    "province": "울산",
    "description": null
  },
  {
    "id": "welchon-301",
    "name": "대왕암공원",
    "image": "https://www.welchon.com/upload/seasontheme/course/2024/05/3b418111-db1b-47bb-981f-c7ad02700ba4.jpg",
    "lat": 35.49095677,
    "lng": 129.4394003,
    "address": "울산 동구 등대로 110 (일산동)",
    "province": "울산",
    "description": null
  },
  {
    "id": "welchon-302",
    "name": "한반도뗏목마을",
    "image": "https://www.welchon.com/upload/seasontheme/course/2024/05/27b8b34d-8ca6-46a9-b21a-7d9c59ca12e1.png",
    "lat": 37.21987613,
    "lng": 128.3575285,
    "address": "강원특별자치도 영월군 한반도면 한반도로 555",
    "province": "강원특별자치도",
    "description": null
  },
  {
    "id": "welchon-303",
    "name": "젊은달와이파크",
    "image": "https://www.welchon.com/upload/seasontheme/course/2024/05/c1183944-a210-4808-a740-1faf93ffc2c5.png",
    "lat": 37.27395628,
    "lng": 128.2692495,
    "address": "강원특별자치도 영월군 주천면 송학주천로 1467-9",
    "province": "강원특별자치도",
    "description": null
  },
  {
    "id": "welchon-304",
    "name": "몽토랑산양목장",
    "image": "https://www.welchon.com/upload/seasontheme/course/2024/05/116b5629-2d3e-4c60-b0e2-ab92e45c5fb1.png",
    "lat": 37.18194586,
    "lng": 128.9641515,
    "address": "강원특별자치도 태백시 효자1길 27-2 (화전동)",
    "province": "강원특별자치도",
    "description": null
  },
  {
    "id": "welchon-305",
    "name": "태백고생대자연사박물관",
    "image": "https://www.welchon.com/upload/seasontheme/course/2024/05/f6aeec40-4c13-495a-a1e4-1480950dcf42.png",
    "lat": 37.09484864,
    "lng": 129.0397121,
    "address": "강원특별자치도 태백시 태백로 2249 (동점동)",
    "province": "강원특별자치도",
    "description": null
  },
  {
    "id": "welchon-306",
    "name": "별마로천문대",
    "image": "https://www.welchon.com/upload/seasontheme/course/2024/05/922918ec-b832-4c53-8a75-5d290ccfa830.png",
    "lat": 37.19943525,
    "lng": 128.4857285,
    "address": "강원특별자치도 영월군 영월읍 천문대길 397",
    "province": "강원특별자치도",
    "description": null
  },
  {
    "id": "welchon-307",
    "name": "보성여관",
    "image": "https://www.welchon.com/upload/seasontheme/course/2024/05/dfc69131-7373-4f7a-9937-f3955a0df2a9.png",
    "lat": 34.84384599,
    "lng": 127.3432515,
    "address": "전남 보성군 벌교읍 태백산맥길 19",
    "province": "전남",
    "description": null
  },
  {
    "id": "welchon-308",
    "name": "동편제마을",
    "image": "https://www.welchon.com/upload/seasontheme/course/2024/05/98f362ef-cf6d-4a4b-ad19-cbd9873c9369.jpg",
    "lat": 35.45754402,
    "lng": 127.5626831,
    "address": "전북특별자치도 남원시 운봉읍 비전길 7",
    "province": "전북특별자치도",
    "description": null
  },
  {
    "id": "welchon-309",
    "name": "남원 혼불문학마을",
    "image": "https://www.welchon.com/upload/seasontheme/course/2024/05/86dcf26e-7ae8-4290-ae09-40f683b63dd4.png",
    "lat": 35.48109815,
    "lng": 127.3200256,
    "address": "전북특별자치도 남원시 사매면 노봉안길 52",
    "province": "전북특별자치도",
    "description": null
  },
  {
    "id": "welchon-310",
    "name": "월곡영화골 벽화마을",
    "image": "https://www.welchon.com/upload/seasontheme/course/2024/05/e277197f-0020-4ccb-8a42-fb72bd98a038.png",
    "lat": 34.84561379,
    "lng": 127.3416295,
    "address": "전남 보성군 벌교읍 월곡길 18-31",
    "province": "전남",
    "description": null
  },
  {
    "id": "welchon-311",
    "name": "오두산통일전망대",
    "image": "https://www.welchon.com/upload/seasontheme/course/2024/05/d15c7630-99df-4e8e-a2c0-45d2b876ef36.png",
    "lat": 37.77306925,
    "lng": 126.67709,
    "address": "경기 파주시 탄현면 필승로 369",
    "province": "경기",
    "description": null
  },
  {
    "id": "welchon-312",
    "name": "철원역사문화공원",
    "image": "https://www.welchon.com/upload/seasontheme/course/2024/05/88a073e1-730f-43fb-8524-ffa7ee4c129a.png",
    "lat": 38.25594689,
    "lng": 127.1998324,
    "address": "강원특별자치도 철원군 철원읍 금강산로 262",
    "province": "강원특별자치도",
    "description": null
  },
  {
    "id": "welchon-313",
    "name": "두루미평화마을",
    "image": "https://www.welchon.com/upload/seasontheme/course/2024/05/41a4b973-ac35-49f6-8e62-4eabb87f2618.png",
    "lat": 38.26217107,
    "lng": 127.1647227,
    "address": "강원특별자치도 철원군 철원읍 대마길 38",
    "province": "강원특별자치도",
    "description": null
  },
  {
    "id": "welchon-314",
    "name": "임진각 평화누리공원",
    "image": "https://www.welchon.com/upload/seasontheme/course/2024/05/695f32ee-dd26-4ce0-a800-d938a010ae50.png",
    "lat": 37.89042994,
    "lng": 126.7403768,
    "address": "경기 파주시 문산읍 임진각로 148-53",
    "province": "경기",
    "description": null
  },
  {
    "id": "welchon-315",
    "name": "상가리야자숲",
    "image": "https://www.welchon.com/upload/seasontheme/course/2024/05/347f6d89-a923-4b1d-b9ed-c8c1d4e4dec3.jpg",
    "lat": 33.43943561,
    "lng": 126.3584778,
    "address": "제주특별자치도 제주시 애월읍 고하상로 326",
    "province": "제주특별자치도",
    "description": null
  },
  {
    "id": "welchon-316",
    "name": "화조원",
    "image": "https://www.welchon.com/upload/seasontheme/course/2024/05/4b681b05-450c-4a68-b841-1e4b05656be8.jpg",
    "lat": 33.41130804,
    "lng": 126.3720052,
    "address": "제주특별자치도 제주시 애월읍 애원로 804",
    "province": "제주특별자치도",
    "description": null
  },
  {
    "id": "welchon-317",
    "name": "제주도 풋감마을",
    "image": "https://www.welchon.com/upload/seasontheme/course/2024/05/d314f35b-9ed4-453d-aced-2929fb5234dc.jpg",
    "lat": 33.44049698,
    "lng": 126.380181,
    "address": "제주특별자치도 제주시 애월읍 소길1길 11",
    "province": "제주특별자치도",
    "description": null
  },
  {
    "id": "welchon-318",
    "name": "금능석물원",
    "image": "https://www.welchon.com/upload/seasontheme/course/2024/05/707c1de2-4708-452d-b364-697f2b7cc793.jpg",
    "lat": 33.38469164,
    "lng": 126.2267365,
    "address": "제주특별자치도 제주시 한림읍 한림로 176",
    "province": "제주특별자치도",
    "description": null
  },
  {
    "id": "welchon-319",
    "name": "서귀포 가시리마을",
    "image": "https://www.welchon.com/upload/seasontheme/course/2024/05/0360275c-2929-4c3d-b402-2804b9cb4d9d.jpg",
    "lat": 33.35463167,
    "lng": 126.7705982,
    "address": "제주특별자치도 서귀포시 표선면 가시로613번길 54-14",
    "province": "제주특별자치도",
    "description": null
  },
  {
    "id": "welchon-320",
    "name": "대포주상절리",
    "image": "https://www.welchon.com/upload/seasontheme/course/2024/05/947bbacd-4c17-4fe3-8cd4-257835e40568.jpg",
    "lat": 33.23890364,
    "lng": 126.4264867,
    "address": "제주특별자치도 서귀포시 이어도로 36-24 (중문동)",
    "province": "제주특별자치도",
    "description": null
  },
  {
    "id": "welchon-321",
    "name": "안덕계곡",
    "image": "https://www.welchon.com/upload/seasontheme/course/2024/05/cc5dbafc-c98c-4abd-bf31-0142ae9367c9.jpg",
    "lat": 33.25015602,
    "lng": 126.3468216,
    "address": "제주특별자치도 서귀포시 안덕면 서안골로 111",
    "province": "제주특별자치도",
    "description": null
  },
  {
    "id": "welchon-322",
    "name": "답다니수국",
    "image": "https://www.welchon.com/upload/seasontheme/course/2024/05/ffa84cb6-96d2-4e28-9526-4e9a5e7037d7.jpg",
    "lat": 33.24383867,
    "lng": 126.4642332,
    "address": "제주특별자치도 서귀포시 월평로50번길 17-30 (월평동)",
    "province": "제주특별자치도",
    "description": null
  },
  {
    "id": "welchon-323",
    "name": "삼성현역사문화공원",
    "image": "https://www.welchon.com/upload/seasontheme/course/2024/05/41a1828b-6ea5-40c9-8981-20ff3bde4290.jpg",
    "lat": 35.80168833,
    "lng": 128.7966116,
    "address": "경북 경산시 남산면 삼성현공원로 59",
    "province": "경북",
    "description": null
  },